{
"type": "FeatureCollection",
"name": "restaurants_clark_county",
"crs": { "type": "name", "properties": { "name": "urn:ogc:def:crs:OGC:1.3:CRS84" } },
"features": [
{ "type": "Feature", "properties": { "osm_id": "12663163584", "name": "$5 Cafe", "fclass": "restaurant", "county_name": "Clark County" }, "geometry": { "type": "Point", "coordinates": [ -115.1561458, 36.1462245 ] } },
{ "type": "Feature", "properties": { "osm_id": "13265676914", "name": "322 Pizza Bar", "fclass": "restaurant", "county_name": "Clark County" }, "geometry": { "type": "Point", "coordinates": [ -115.1420654, 36.1699636 ] } },
{ "type": "Feature", "properties": { "osm_id": "6181899587", "name": "5 Below Creamery", "fclass": "restaurant", "county_name": "Clark County" }, "geometry": { "type": "Point", "coordinates": [ -115.2963542, 36.0966126 ] } },
{ "type": "Feature", "properties": { "osm_id": "5731409521", "name": "800 Degrees", "fclass": "restaurant", "county_name": "Clark County" }, "geometry": { "type": "Point", "coordinates": [ -115.1573686, 36.1423804 ] } },
{ "type": "Feature", "properties": { "osm_id": "12592545333", "name": "808 Cafe", "fclass": "restaurant", "county_name": "Clark County" }, "geometry": { "type": "Point", "coordinates": [ -115.2624073, 36.1165888 ] } },
{ "type": "Feature", "properties": { "osm_id": "13596448373", "name": "888 Japanese BBQ Encore", "fclass": "restaurant", "county_name": "Clark County" }, "geometry": { "type": "Point", "coordinates": [ -115.1193291, 36.0265504 ] } },
{ "type": "Feature", "properties": { "osm_id": "11513107413", "name": "888 Korean BBQ", "fclass": "restaurant", "county_name": "Clark County" }, "geometry": { "type": "Point", "coordinates": [ -115.196093, 36.1254364 ] } },
{ "type": "Feature", "properties": { "osm_id": "5421565717", "name": "8 Noodle Bar", "fclass": "restaurant", "county_name": "Clark County" }, "geometry": { "type": "Point", "coordinates": [ -115.3331814, 36.1560117 ] } },
{ "type": "Feature", "properties": { "osm_id": "11510294042", "name": "8unce", "fclass": "restaurant", "county_name": "Clark County" }, "geometry": { "type": "Point", "coordinates": [ -115.2025789, 36.1256104 ] } },
{ "type": "Feature", "properties": { "osm_id": "10881223723", "name": "Above the Crust", "fclass": "restaurant", "county_name": "Clark County" }, "geometry": { "type": "Point", "coordinates": [ -115.2660457, 36.263758 ] } },
{ "type": "Feature", "properties": { "osm_id": "12843104974", "name": "Ada's Food+Wine", "fclass": "restaurant", "county_name": "Clark County" }, "geometry": { "type": "Point", "coordinates": [ -115.2859661, 36.1674709 ] } },
{ "type": "Feature", "properties": { "osm_id": "10884135795", "name": "Algoberto's Mexican Food", "fclass": "restaurant", "county_name": "Clark County" }, "geometry": { "type": "Point", "coordinates": [ -115.2704268, 36.2974159 ] } },
{ "type": "Feature", "properties": { "osm_id": "11513107409", "name": "All Seasons Cafe", "fclass": "restaurant", "county_name": "Clark County" }, "geometry": { "type": "Point", "coordinates": [ -115.1963218, 36.1254268 ] } },
{ "type": "Feature", "properties": { "osm_id": "11510294067", "name": "All You Can Eat", "fclass": "restaurant", "county_name": "Clark County" }, "geometry": { "type": "Point", "coordinates": [ -115.2025779, 36.1254748 ] } },
{ "type": "Feature", "properties": { "osm_id": "11626047353", "name": "Aloha Sunrise Cafe", "fclass": "restaurant", "county_name": "Clark County" }, "geometry": { "type": "Point", "coordinates": [ -115.0382715, 36.0633042 ] } },
{ "type": "Feature", "properties": { "osm_id": "1941751932", "name": "Amancer", "fclass": "restaurant", "county_name": "Clark County" }, "geometry": { "type": "Point", "coordinates": [ -115.1546374, 36.1523451 ] } },
{ "type": "Feature", "properties": { "osm_id": "10999067651", "name": "Amari", "fclass": "restaurant", "county_name": "Clark County" }, "geometry": { "type": "Point", "coordinates": [ -115.2773892, 36.0641795 ] } },
{ "type": "Feature", "properties": { "osm_id": "13505337302", "name": "Amaya", "fclass": "restaurant", "county_name": "Clark County" }, "geometry": { "type": "Point", "coordinates": [ -115.1745491, 36.110006 ] } },
{ "type": "Feature", "properties": { "osm_id": "4668886728", "name": "America", "fclass": "restaurant", "county_name": "Clark County" }, "geometry": { "type": "Point", "coordinates": [ -115.1750921, 36.1021028 ] } },
{ "type": "Feature", "properties": { "osm_id": "12091343587", "name": "American Coney Island", "fclass": "restaurant", "county_name": "Clark County" }, "geometry": { "type": "Point", "coordinates": [ -115.1424558, 36.1699081 ] } },
{ "type": "Feature", "properties": { "osm_id": "2645244780", "name": "Andiamo Italian Steakhouse", "fclass": "restaurant", "county_name": "Clark County" }, "geometry": { "type": "Point", "coordinates": [ -115.142748, 36.1695221 ] } },
{ "type": "Feature", "properties": { "osm_id": "13100012592", "name": "Angara", "fclass": "restaurant", "county_name": "Clark County" }, "geometry": { "type": "Point", "coordinates": [ -115.3086134, 36.1140826 ] } },
{ "type": "Feature", "properties": { "osm_id": "9829265225", "name": "Angelina's Pizzeria", "fclass": "restaurant", "county_name": "Clark County" }, "geometry": { "type": "Point", "coordinates": [ -115.240843, 36.0846055 ] } },
{ "type": "Feature", "properties": { "osm_id": "11794423510", "name": "Anna Marie's Italian Cuisine", "fclass": "restaurant", "county_name": "Clark County" }, "geometry": { "type": "Point", "coordinates": [ -115.3145325, 36.1015919 ] } },
{ "type": "Feature", "properties": { "osm_id": "9812332820", "name": "anna’s breakfast", "fclass": "restaurant", "county_name": "Clark County" }, "geometry": { "type": "Point", "coordinates": [ -115.1029552, 36.0019279 ] } },
{ "type": "Feature", "properties": { "osm_id": "9719036589", "name": "Anthony's Prime Steak and Seafood", "fclass": "restaurant", "county_name": "Clark County" }, "geometry": { "type": "Point", "coordinates": [ -115.1707079, 35.9647492 ] } },
{ "type": "Feature", "properties": { "osm_id": "9462480778", "name": "A Pizza Melody", "fclass": "restaurant", "county_name": "Clark County" }, "geometry": { "type": "Point", "coordinates": [ -115.243924, 36.0899284 ] } },
{ "type": "Feature", "properties": { "osm_id": "12677312208", "name": "Applebee's", "fclass": "restaurant", "county_name": "Clark County" }, "geometry": { "type": "Point", "coordinates": [ -115.1653134, 36.2390538 ] } },
{ "type": "Feature", "properties": { "osm_id": "12628375978", "name": "Applebee's", "fclass": "restaurant", "county_name": "Clark County" }, "geometry": { "type": "Point", "coordinates": [ -115.145131, 36.0575687 ] } },
{ "type": "Feature", "properties": { "osm_id": "6173915382", "name": "Asian Kitchen", "fclass": "restaurant", "county_name": "Clark County" }, "geometry": { "type": "Point", "coordinates": [ -115.2479065, 36.2623031 ] } },
{ "type": "Feature", "properties": { "osm_id": "3347283700", "name": "AT&T;Naan and Curry", "fclass": "restaurant", "county_name": "Clark County" }, "geometry": { "type": "Point", "coordinates": [ -115.279571, 36.0532225 ] } },
{ "type": "Feature", "properties": { "osm_id": "8241528523", "name": "Avenue Shops", "fclass": "restaurant", "county_name": "Clark County" }, "geometry": { "type": "Point", "coordinates": [ -115.16758, 36.1137352 ] } },
{ "type": "Feature", "properties": { "osm_id": "12840991478", "name": "Babystacks", "fclass": "restaurant", "county_name": "Clark County" }, "geometry": { "type": "Point", "coordinates": [ -115.1496288, 36.1669635 ] } },
{ "type": "Feature", "properties": { "osm_id": "10739946173", "name": "Babystacks Cafe", "fclass": "restaurant", "county_name": "Clark County" }, "geometry": { "type": "Point", "coordinates": [ -115.0456335, 36.0601692 ] } },
{ "type": "Feature", "properties": { "osm_id": "4668786306", "name": "Bacchanal Buffet", "fclass": "restaurant", "county_name": "Clark County" }, "geometry": { "type": "Point", "coordinates": [ -115.1762929, 36.1159581 ] } },
{ "type": "Feature", "properties": { "osm_id": "4200876903", "name": "Bachi Burger", "fclass": "restaurant", "county_name": "Clark County" }, "geometry": { "type": "Point", "coordinates": [ -115.2411686, 36.0845535 ] } },
{ "type": "Feature", "properties": { "osm_id": "4669431061", "name": "Backstage Deli", "fclass": "restaurant", "county_name": "Clark County" }, "geometry": { "type": "Point", "coordinates": [ -115.1763325, 36.0949572 ] } },
{ "type": "Feature", "properties": { "osm_id": "4669220521", "name": "Baja Fresh Mexican Grill;Buca di Beppo", "fclass": "restaurant", "county_name": "Clark County" }, "geometry": { "type": "Point", "coordinates": [ -115.1757985, 36.0990145 ] } },
{ "type": "Feature", "properties": { "osm_id": "4742179533", "name": "Balboa", "fclass": "restaurant", "county_name": "Clark County" }, "geometry": { "type": "Point", "coordinates": [ -115.087863, 36.0210847 ] } },
{ "type": "Feature", "properties": { "osm_id": "5343323721", "name": "Bambino’s East Side Pizza", "fclass": "restaurant", "county_name": "Clark County" }, "geometry": { "type": "Point", "coordinates": [ -115.279361, 36.1422565 ] } },
{ "type": "Feature", "properties": { "osm_id": "9837397087", "name": "Banana Leaf Café", "fclass": "restaurant", "county_name": "Clark County" }, "geometry": { "type": "Point", "coordinates": [ -115.197341, 36.1279644 ] } },
{ "type": "Feature", "properties": { "osm_id": "12695647544", "name": "Banchan Village", "fclass": "restaurant", "county_name": "Clark County" }, "geometry": { "type": "Point", "coordinates": [ -115.2987542, 36.0716348 ] } },
{ "type": "Feature", "properties": { "osm_id": "10743719842", "name": "Bangkok Orchid", "fclass": "restaurant", "county_name": "Clark County" }, "geometry": { "type": "Point", "coordinates": [ -115.0720226, 36.0716347 ] } },
{ "type": "Feature", "properties": { "osm_id": "11513107414", "name": "Bangkok Thai Kitchen", "fclass": "restaurant", "county_name": "Clark County" }, "geometry": { "type": "Point", "coordinates": [ -115.1963214, 36.1253905 ] } },
{ "type": "Feature", "properties": { "osm_id": "11510294065", "name": "Banh Mi Dan Han", "fclass": "restaurant", "county_name": "Clark County" }, "geometry": { "type": "Point", "coordinates": [ -115.2025892, 36.1259638 ] } },
{ "type": "Feature", "properties": { "osm_id": "13460860492", "name": "Bardot Brasserie", "fclass": "restaurant", "county_name": "Clark County" }, "geometry": { "type": "Point", "coordinates": [ -115.1769929, 36.1067224 ] } },
{ "type": "Feature", "properties": { "osm_id": "11329989507", "name": "Basil 'n Lime", "fclass": "restaurant", "county_name": "Clark County" }, "geometry": { "type": "Point", "coordinates": [ -115.298038, 36.1230441 ] } },
{ "type": "Feature", "properties": { "osm_id": "6340697785", "name": "Bavette's Steakhouse & Bar", "fclass": "restaurant", "county_name": "Clark County" }, "geometry": { "type": "Point", "coordinates": [ -115.174901, 36.1050759 ] } },
{ "type": "Feature", "properties": { "osm_id": "12879297702", "name": "Bazaar Meat by Josee Andreas", "fclass": "restaurant", "county_name": "Clark County" }, "geometry": { "type": "Point", "coordinates": [ -115.1552452, 36.1429727 ] } },
{ "type": "Feature", "properties": { "osm_id": "7727679694", "name": "bb.q Chicken", "fclass": "restaurant", "county_name": "Clark County" }, "geometry": { "type": "Point", "coordinates": [ -115.1972383, 36.127941 ] } },
{ "type": "Feature", "properties": { "osm_id": "9837648863", "name": "bb.q Chicken", "fclass": "restaurant", "county_name": "Clark County" }, "geometry": { "type": "Point", "coordinates": [ -115.2416562, 36.0551573 ] } },
{ "type": "Feature", "properties": { "osm_id": "12544901219", "name": "BBQ King", "fclass": "restaurant", "county_name": "Clark County" }, "geometry": { "type": "Point", "coordinates": [ -115.2190466, 36.1259571 ] } },
{ "type": "Feature", "properties": { "osm_id": "12577856199", "name": "Beach Cafe", "fclass": "restaurant", "county_name": "Clark County" }, "geometry": { "type": "Point", "coordinates": [ -114.5765269, 35.1442792 ] } },
{ "type": "Feature", "properties": { "osm_id": "13505337308", "name": "Beauty & Essex", "fclass": "restaurant", "county_name": "Clark County" }, "geometry": { "type": "Point", "coordinates": [ -115.17349, 36.1102984 ] } },
{ "type": "Feature", "properties": { "osm_id": "4365590290", "name": "Beers and Bets", "fclass": "restaurant", "county_name": "Clark County" }, "geometry": { "type": "Point", "coordinates": [ -115.1573836, 36.1428945 ] } },
{ "type": "Feature", "properties": { "osm_id": "4668786305", "name": "Beijing Noodle No. 9", "fclass": "restaurant", "county_name": "Clark County" }, "geometry": { "type": "Point", "coordinates": [ -115.1758038, 36.1158277 ] } },
{ "type": "Feature", "properties": { "osm_id": "8241579281", "name": "Bellagio Buffet", "fclass": "restaurant", "county_name": "Clark County" }, "geometry": { "type": "Point", "coordinates": [ -115.1760851, 36.1135961 ] } },
{ "type": "Feature", "properties": { "osm_id": "4742179541", "name": "Bella Vita", "fclass": "restaurant", "county_name": "Clark County" }, "geometry": { "type": "Point", "coordinates": [ -115.085914, 36.0215003 ] } },
{ "type": "Feature", "properties": { "osm_id": "5283207321", "name": "Benihana", "fclass": "restaurant", "county_name": "Clark County" }, "geometry": { "type": "Point", "coordinates": [ -115.152336, 36.1350801 ] } },
{ "type": "Feature", "properties": { "osm_id": "4668830701", "name": "Best Friend", "fclass": "restaurant", "county_name": "Clark County" }, "geometry": { "type": "Point", "coordinates": [ -115.1739173, 36.1049396 ] } },
{ "type": "Feature", "properties": { "osm_id": "8241480217", "name": "Big Boy", "fclass": "restaurant", "county_name": "Clark County" }, "geometry": { "type": "Point", "coordinates": [ -115.668461, 36.5770532 ] } },
{ "type": "Feature", "properties": { "osm_id": "12528715478", "name": "Big Dan Shanxi Taste", "fclass": "restaurant", "county_name": "Clark County" }, "geometry": { "type": "Point", "coordinates": [ -115.2106485, 36.125685 ] } },
{ "type": "Feature", "properties": { "osm_id": "12138609602", "name": "Biscuits and Bourbon", "fclass": "restaurant", "county_name": "Clark County" }, "geometry": { "type": "Point", "coordinates": [ -114.9840217, 36.0339336 ] } },
{ "type": "Feature", "properties": { "osm_id": "6848931285", "name": "Black Bear Diner", "fclass": "restaurant", "county_name": "Clark County" }, "geometry": { "type": "Point", "coordinates": [ -115.1715973, 36.050459 ] } },
{ "type": "Feature", "properties": { "osm_id": "8202702417", "name": "Black Bear Dinner", "fclass": "restaurant", "county_name": "Clark County" }, "geometry": { "type": "Point", "coordinates": [ -115.2784873, 36.1428864 ] } },
{ "type": "Feature", "properties": { "osm_id": "12400346745", "name": "Black Tap Craft Burgers & Beer", "fclass": "restaurant", "county_name": "Clark County" }, "geometry": { "type": "Point", "coordinates": [ -115.1702733, 36.1225991 ] } },
{ "type": "Feature", "properties": { "osm_id": "13050258889", "name": "Blaze Pizza", "fclass": "restaurant", "county_name": "Clark County" }, "geometry": { "type": "Point", "coordinates": [ -115.1885655, 36.0405985 ] } },
{ "type": "Feature", "properties": { "osm_id": "11376205910", "name": "Blizz Frozen Yogurt & Deserts", "fclass": "restaurant", "county_name": "Clark County" }, "geometry": { "type": "Point", "coordinates": [ -115.1682039, 36.1035594 ] } },
{ "type": "Feature", "properties": { "osm_id": "13460860484", "name": "Blossom", "fclass": "restaurant", "county_name": "Clark County" }, "geometry": { "type": "Point", "coordinates": [ -115.1775333, 36.1071721 ] } },
{ "type": "Feature", "properties": { "osm_id": "4781942414", "name": "blp Breakfast Lunch and Pizza", "fclass": "restaurant", "county_name": "Clark County" }, "geometry": { "type": "Point", "coordinates": [ -114.443522, 36.5388631 ] } },
{ "type": "Feature", "properties": { "osm_id": "4668679491", "name": "BLT Steakhouse", "fclass": "restaurant", "county_name": "Clark County" }, "geometry": { "type": "Point", "coordinates": [ -115.1690095, 36.1135528 ] } },
{ "type": "Feature", "properties": { "osm_id": "12584370801", "name": "Bluebei Sushi & Grill", "fclass": "restaurant", "county_name": "Clark County" }, "geometry": { "type": "Point", "coordinates": [ -115.2623709, 36.018729 ] } },
{ "type": "Feature", "properties": { "osm_id": "4936667323", "name": "blueberry hill Family Restaurant", "fclass": "restaurant", "county_name": "Clark County" }, "geometry": { "type": "Point", "coordinates": [ -115.2067847, 36.1149881 ] } },
{ "type": "Feature", "properties": { "osm_id": "12452682308", "name": "Blue Ox Central", "fclass": "restaurant", "county_name": "Clark County" }, "geometry": { "type": "Point", "coordinates": [ -115.1182281, 36.0800451 ] } },
{ "type": "Feature", "properties": { "osm_id": "13505337312", "name": "Blue Ribbon", "fclass": "restaurant", "county_name": "Clark County" }, "geometry": { "type": "Point", "coordinates": [ -115.1741009, 36.1097418 ] } },
{ "type": "Feature", "properties": { "osm_id": "7022167055", "name": "Blue Ribbon Sushi Bar & Grill", "fclass": "restaurant", "county_name": "Clark County" }, "geometry": { "type": "Point", "coordinates": [ -115.3336594, 36.157052 ] } },
{ "type": "Feature", "properties": { "osm_id": "4668688397", "name": "Bonanno's New York Pizzeria", "fclass": "restaurant", "county_name": "Clark County" }, "geometry": { "type": "Point", "coordinates": [ -115.1719357, 36.1165192 ] } },
{ "type": "Feature", "properties": { "osm_id": "456020548", "name": "Bootlegger Bistro", "fclass": "restaurant", "county_name": "Clark County" }, "geometry": { "type": "Point", "coordinates": [ -115.1715744, 36.0492047 ] } },
{ "type": "Feature", "properties": { "osm_id": "13358627467", "name": "Born and Raised", "fclass": "restaurant", "county_name": "Clark County" }, "geometry": { "type": "Point", "coordinates": [ -115.2893489, 36.2783075 ] } },
{ "type": "Feature", "properties": { "osm_id": "12407196273", "name": "Bouchon at The Venetian", "fclass": "restaurant", "county_name": "Clark County" }, "geometry": { "type": "Point", "coordinates": [ -115.1691613, 36.1208815 ] } },
{ "type": "Feature", "properties": { "osm_id": "1835694782", "name": "Boulder Dam Brewing Company", "fclass": "restaurant", "county_name": "Clark County" }, "geometry": { "type": "Point", "coordinates": [ -114.836783, 35.9784999 ] } },
{ "type": "Feature", "properties": { "osm_id": "1835694796", "name": "Boulder Dam Hotel Restaurant", "fclass": "restaurant", "county_name": "Clark County" }, "geometry": { "type": "Point", "coordinates": [ -114.8367347, 35.9779833 ] } },
{ "type": "Feature", "properties": { "osm_id": "12783384116", "name": "Bowlology", "fclass": "restaurant", "county_name": "Clark County" }, "geometry": { "type": "Point", "coordinates": [ -115.2773999, 36.0216335 ] } },
{ "type": "Feature", "properties": { "osm_id": "5576770296", "name": "Breakfast Bar", "fclass": "restaurant", "county_name": "Clark County" }, "geometry": { "type": "Point", "coordinates": [ -115.2502829, 36.2198475 ] } },
{ "type": "Feature", "properties": { "osm_id": "11063794226", "name": "Breakfast Junkies", "fclass": "restaurant", "county_name": "Clark County" }, "geometry": { "type": "Point", "coordinates": [ -115.1296924, 35.9398634 ] } },
{ "type": "Feature", "properties": { "osm_id": "12400346756", "name": "BRERA osteria", "fclass": "restaurant", "county_name": "Clark County" }, "geometry": { "type": "Point", "coordinates": [ -115.1687383, 36.1227284 ] } },
{ "type": "Feature", "properties": { "osm_id": "8568261451", "name": "Broadway Pizzeria", "fclass": "restaurant", "county_name": "Clark County" }, "geometry": { "type": "Point", "coordinates": [ -115.1733269, 36.1616189 ] } },
{ "type": "Feature", "properties": { "osm_id": "13172551508", "name": "Broken Yolk Cafe", "fclass": "restaurant", "county_name": "Clark County" }, "geometry": { "type": "Point", "coordinates": [ -115.141365, 36.1678335 ] } },
{ "type": "Feature", "properties": { "osm_id": "4015588707", "name": "Brooklyn Bowl", "fclass": "restaurant", "county_name": "Clark County" }, "geometry": { "type": "Point", "coordinates": [ -115.1695094, 36.1175388 ] } },
{ "type": "Feature", "properties": { "osm_id": "12409038618", "name": "Brookwood Farms", "fclass": "restaurant", "county_name": "Clark County" }, "geometry": { "type": "Point", "coordinates": [ -115.1464103, 36.0802811 ] } },
{ "type": "Feature", "properties": { "osm_id": "12559771534", "name": "Bruce's Taste of Chicago", "fclass": "restaurant", "county_name": "Clark County" }, "geometry": { "type": "Point", "coordinates": [ -114.6239095, 35.1238202 ] } },
{ "type": "Feature", "properties": { "osm_id": "4831320121", "name": "Bruxie", "fclass": "restaurant", "county_name": "Clark County" }, "geometry": { "type": "Point", "coordinates": [ -115.1740004, 36.103074 ] } },
{ "type": "Feature", "properties": { "osm_id": "4749133319", "name": "Bubba Gump Shrimp Company", "fclass": "restaurant", "county_name": "Clark County" }, "geometry": { "type": "Point", "coordinates": [ -115.1721733, 36.1089728 ] } },
{ "type": "Feature", "properties": { "osm_id": "12570513046", "name": "Bubba Gump Shrimp Company", "fclass": "restaurant", "county_name": "Clark County" }, "geometry": { "type": "Point", "coordinates": [ -114.5726638, 35.1542373 ] } },
{ "type": "Feature", "properties": { "osm_id": "5952159585", "name": "Buca de Pepo", "fclass": "restaurant", "county_name": "Clark County" }, "geometry": { "type": "Point", "coordinates": [ -115.1750348, 36.0990554 ] } },
{ "type": "Feature", "properties": { "osm_id": "4668742172", "name": "Buddy V's", "fclass": "restaurant", "county_name": "Clark County" }, "geometry": { "type": "Point", "coordinates": [ -115.1697093, 36.1231133 ] } },
{ "type": "Feature", "properties": { "osm_id": "4630801431", "name": "Buffalo Wild Wings", "fclass": "restaurant", "county_name": "Clark County" }, "geometry": { "type": "Point", "coordinates": [ -114.9917034, 36.0090449 ] } },
{ "type": "Feature", "properties": { "osm_id": "454065317", "name": "Buffalo Wild Wings", "fclass": "restaurant", "county_name": "Clark County" }, "geometry": { "type": "Point", "coordinates": [ -115.171486, 36.0543044 ] } },
{ "type": "Feature", "properties": { "osm_id": "10742240861", "name": "Buffalo Wild Wings", "fclass": "restaurant", "county_name": "Clark County" }, "geometry": { "type": "Point", "coordinates": [ -115.0400937, 36.0649857 ] } },
{ "type": "Feature", "properties": { "osm_id": "4668653104", "name": "Buffalo Wild Wings", "fclass": "restaurant", "county_name": "Clark County" }, "geometry": { "type": "Point", "coordinates": [ -115.171605, 36.1084398 ] } },
{ "type": "Feature", "properties": { "osm_id": "12472965039", "name": "Buffalo Wild Wings", "fclass": "restaurant", "county_name": "Clark County" }, "geometry": { "type": "Point", "coordinates": [ -115.1110739, 36.0031751 ] } },
{ "type": "Feature", "properties": { "osm_id": "10229695666", "name": "Buffalo Wild Wings", "fclass": "restaurant", "county_name": "Clark County" }, "geometry": { "type": "Point", "coordinates": [ -115.2815183, 36.0550279 ] } },
{ "type": "Feature", "properties": { "osm_id": "10719856839", "name": "Buffalo Wild Wings", "fclass": "restaurant", "county_name": "Clark County" }, "geometry": { "type": "Point", "coordinates": [ -115.2861186, 36.2811874 ] } },
{ "type": "Feature", "properties": { "osm_id": "4668688400", "name": "Bugsy's Deli", "fclass": "restaurant", "county_name": "Clark County" }, "geometry": { "type": "Point", "coordinates": [ -115.1719921, 36.1160901 ] } },
{ "type": "Feature", "properties": { "osm_id": "12570513072", "name": "Bumbleberry Flats", "fclass": "restaurant", "county_name": "Clark County" }, "geometry": { "type": "Point", "coordinates": [ -114.5725691, 35.1556426 ] } },
{ "type": "Feature", "properties": { "osm_id": "4669476595", "name": "Burger Bar", "fclass": "restaurant", "county_name": "Clark County" }, "geometry": { "type": "Point", "coordinates": [ -115.1760142, 36.0943773 ] } },
{ "type": "Feature", "properties": { "osm_id": "8600536093", "name": "Burnt Offerings", "fclass": "restaurant", "county_name": "Clark County" }, "geometry": { "type": "Point", "coordinates": [ -115.193898, 36.1440369 ] } },
{ "type": "Feature", "properties": { "osm_id": "11510316976", "name": "C3 Cajun Crab N Crawfish Seafood Boil", "fclass": "restaurant", "county_name": "Clark County" }, "geometry": { "type": "Point", "coordinates": [ -115.1971367, 36.1266181 ] } },
{ "type": "Feature", "properties": { "osm_id": "12398237197", "name": "Cafe Americano at Caesars Palace", "fclass": "restaurant", "county_name": "Clark County" }, "geometry": { "type": "Point", "coordinates": [ -115.1745069, 36.1156222 ] } },
{ "type": "Feature", "properties": { "osm_id": "12650758632", "name": "Cafe Aquarius", "fclass": "restaurant", "county_name": "Clark County" }, "geometry": { "type": "Point", "coordinates": [ -114.5714371, 35.1640549 ] } },
{ "type": "Feature", "properties": { "osm_id": "12993404462", "name": "Café Havana", "fclass": "restaurant", "county_name": "Clark County" }, "geometry": { "type": "Point", "coordinates": [ -115.0909713, 36.1140435 ] } },
{ "type": "Feature", "properties": { "osm_id": "5416278322", "name": "Cafe Rio", "fclass": "restaurant", "county_name": "Clark County" }, "geometry": { "type": "Point", "coordinates": [ -115.2949733, 36.1446099 ] } },
{ "type": "Feature", "properties": { "osm_id": "8199680771", "name": "Cafe Rio", "fclass": "restaurant", "county_name": "Clark County" }, "geometry": { "type": "Point", "coordinates": [ -115.3074561, 36.3145219 ] } },
{ "type": "Feature", "properties": { "osm_id": "10739772159", "name": "Cafe Rio", "fclass": "restaurant", "county_name": "Clark County" }, "geometry": { "type": "Point", "coordinates": [ -115.0468967, 36.0567654 ] } },
{ "type": "Feature", "properties": { "osm_id": "11507016597", "name": "Cafe Rio", "fclass": "restaurant", "county_name": "Clark County" }, "geometry": { "type": "Point", "coordinates": [ -115.2002217, 36.1148165 ] } },
{ "type": "Feature", "properties": { "osm_id": "12758483870", "name": "Cafe Rio", "fclass": "restaurant", "county_name": "Clark County" }, "geometry": { "type": "Point", "coordinates": [ -114.0635802, 36.8085662 ] } },
{ "type": "Feature", "properties": { "osm_id": "5358963851", "name": "Cafe Rio", "fclass": "restaurant", "county_name": "Clark County" }, "geometry": { "type": "Point", "coordinates": [ -115.1194425, 36.015419 ] } },
{ "type": "Feature", "properties": { "osm_id": "13184430458", "name": "Cafe Rio", "fclass": "restaurant", "county_name": "Clark County" }, "geometry": { "type": "Point", "coordinates": [ -115.1759273, 36.1451849 ] } },
{ "type": "Feature", "properties": { "osm_id": "6205561231", "name": "Cafe Sanuki", "fclass": "restaurant", "county_name": "Clark County" }, "geometry": { "type": "Point", "coordinates": [ -115.2078273, 36.1243399 ] } },
{ "type": "Feature", "properties": { "osm_id": "5741952029", "name": "California Pizza Kitchen", "fclass": "restaurant", "county_name": "Clark County" }, "geometry": { "type": "Point", "coordinates": [ -115.137852, 36.0814224 ] } },
{ "type": "Feature", "properties": { "osm_id": "5442148396", "name": "California Pizza Kitchen", "fclass": "restaurant", "county_name": "Clark County" }, "geometry": { "type": "Point", "coordinates": [ -115.174917, 36.0681318 ] } },
{ "type": "Feature", "properties": { "osm_id": "4668742171", "name": "Canaletto Ristorante", "fclass": "restaurant", "county_name": "Clark County" }, "geometry": { "type": "Point", "coordinates": [ -115.1688618, 36.1230743 ] } },
{ "type": "Feature", "properties": { "osm_id": "12407196272", "name": "Canonita", "fclass": "restaurant", "county_name": "Clark County" }, "geometry": { "type": "Point", "coordinates": [ -115.1693675, 36.1212368 ] } },
{ "type": "Feature", "properties": { "osm_id": "4668752889", "name": "Canonita", "fclass": "restaurant", "county_name": "Clark County" }, "geometry": { "type": "Point", "coordinates": [ -115.1687311, 36.1218701 ] } },
{ "type": "Feature", "properties": { "osm_id": "5879263686", "name": "Canters Deli Las Vegas", "fclass": "restaurant", "county_name": "Clark County" }, "geometry": { "type": "Point", "coordinates": [ -115.1688303, 36.1175315 ] } },
{ "type": "Feature", "properties": { "osm_id": "11513107423", "name": "Capital Seafood", "fclass": "restaurant", "county_name": "Clark County" }, "geometry": { "type": "Point", "coordinates": [ -115.1957403, 36.1254093 ] } },
{ "type": "Feature", "properties": { "osm_id": "4669476599", "name": "Caramá", "fclass": "restaurant", "county_name": "Clark County" }, "geometry": { "type": "Point", "coordinates": [ -115.1761634, 36.0921203 ] } },
{ "type": "Feature", "properties": { "osm_id": "13460860494", "name": "Carbone", "fclass": "restaurant", "county_name": "Clark County" }, "geometry": { "type": "Point", "coordinates": [ -115.1770933, 36.107143 ] } },
{ "type": "Feature", "properties": { "osm_id": "13461048379", "name": "CARBONE RIVIERA", "fclass": "restaurant", "county_name": "Clark County" }, "geometry": { "type": "Point", "coordinates": [ -115.1743987, 36.1138434 ] } },
{ "type": "Feature", "properties": { "osm_id": "4924761522", "name": "Carmines Italian restaurant", "fclass": "restaurant", "county_name": "Clark County" }, "geometry": { "type": "Point", "coordinates": [ -115.1750252, 36.1190185 ] } },
{ "type": "Feature", "properties": { "osm_id": "10744116539", "name": "Carmine's Pizza Kitchen", "fclass": "restaurant", "county_name": "Clark County" }, "geometry": { "type": "Point", "coordinates": [ -115.0303624, 36.0414565 ] } },
{ "type": "Feature", "properties": { "osm_id": "4668742178", "name": "Carnevino Italian Steakhouse", "fclass": "restaurant", "county_name": "Clark County" }, "geometry": { "type": "Point", "coordinates": [ -115.1687357, 36.1249521 ] } },
{ "type": "Feature", "properties": { "osm_id": "12585920315", "name": "Casa Don Juan", "fclass": "restaurant", "county_name": "Clark County" }, "geometry": { "type": "Point", "coordinates": [ -115.0996545, 36.0722858 ] } },
{ "type": "Feature", "properties": { "osm_id": "5589334845", "name": "Casa Don Juan", "fclass": "restaurant", "county_name": "Clark County" }, "geometry": { "type": "Point", "coordinates": [ -115.2596624, 36.1914873 ] } },
{ "type": "Feature", "properties": { "osm_id": "13256713573", "name": "Casa Mia", "fclass": "restaurant", "county_name": "Clark County" }, "geometry": { "type": "Point", "coordinates": [ -115.2532838, 36.143113 ] } },
{ "type": "Feature", "properties": { "osm_id": "3111593429", "name": "Casa Serrano", "fclass": "restaurant", "county_name": "Clark County" }, "geometry": { "type": "Point", "coordinates": [ -114.5728072, 35.1682049 ] } },
{ "type": "Feature", "properties": { "osm_id": "13460860488", "name": "CATCH", "fclass": "restaurant", "county_name": "Clark County" }, "geometry": { "type": "Point", "coordinates": [ -115.1754214, 36.1084504 ] } },
{ "type": "Feature", "properties": { "osm_id": "4668688401", "name": "Center Cut Steakhouse", "fclass": "restaurant", "county_name": "Clark County" }, "geometry": { "type": "Point", "coordinates": [ -115.1717185, 36.1162981 ] } },
{ "type": "Feature", "properties": { "osm_id": "12584370805", "name": "Chalong Thai Street Kitchen", "fclass": "restaurant", "county_name": "Clark County" }, "geometry": { "type": "Point", "coordinates": [ -115.2616846, 36.0188676 ] } },
{ "type": "Feature", "properties": { "osm_id": "11372674638", "name": "Chanko Shabu & Bar", "fclass": "restaurant", "county_name": "Clark County" }, "geometry": { "type": "Point", "coordinates": [ -115.221842, 36.1260205 ] } },
{ "type": "Feature", "properties": { "osm_id": "4669476598", "name": "Charlie Palmer Steak", "fclass": "restaurant", "county_name": "Clark County" }, "geometry": { "type": "Point", "coordinates": [ -115.1743364, 36.0910624 ] } },
{ "type": "Feature", "properties": { "osm_id": "1699971593", "name": "Cheeburger Cheeburger", "fclass": "restaurant", "county_name": "Clark County" }, "geometry": { "type": "Point", "coordinates": [ -115.2429184, 36.0358957 ] } },
{ "type": "Feature", "properties": { "osm_id": "10774571925", "name": "Cheecho's Fajitas & Cantina", "fclass": "restaurant", "county_name": "Clark County" }, "geometry": { "type": "Point", "coordinates": [ -115.2801546, 36.2990062 ] } },
{ "type": "Feature", "properties": { "osm_id": "11384836120", "name": "CheeseTime Italian Fusion", "fclass": "restaurant", "county_name": "Clark County" }, "geometry": { "type": "Point", "coordinates": [ -115.2685831, 36.1428445 ] } },
{ "type": "Feature", "properties": { "osm_id": "12594496546", "name": "Chengu Taste", "fclass": "restaurant", "county_name": "Clark County" }, "geometry": { "type": "Point", "coordinates": [ -115.1923307, 36.1251153 ] } },
{ "type": "Feature", "properties": { "osm_id": "6124288787", "name": "Chica", "fclass": "restaurant", "county_name": "Clark County" }, "geometry": { "type": "Point", "coordinates": [ -115.1694612, 36.1218153 ] } },
{ "type": "Feature", "properties": { "osm_id": "10719856836", "name": "Chicago Guys Pizza Co.", "fclass": "restaurant", "county_name": "Clark County" }, "geometry": { "type": "Point", "coordinates": [ -115.2864327, 36.2812455 ] } },
{ "type": "Feature", "properties": { "osm_id": "12400346749", "name": "CHICA Las Vegas", "fclass": "restaurant", "county_name": "Clark County" }, "geometry": { "type": "Point", "coordinates": [ -115.1694139, 36.1224776 ] } },
{ "type": "Feature", "properties": { "osm_id": "6620386932", "name": "Chicken Space", "fclass": "restaurant", "county_name": "Clark County" }, "geometry": { "type": "Point", "coordinates": [ -115.3141627, 36.1004791 ] } },
{ "type": "Feature", "properties": { "osm_id": "12496889231", "name": "Chickpeas", "fclass": "restaurant", "county_name": "Clark County" }, "geometry": { "type": "Point", "coordinates": [ -115.2253842, 36.1161513 ] } },
{ "type": "Feature", "properties": { "osm_id": "10894961466", "name": "Chikiliquis Taco Stand", "fclass": "restaurant", "county_name": "Clark County" }, "geometry": { "type": "Point", "coordinates": [ -115.2430167, 36.2545382 ] } },
{ "type": "Feature", "properties": { "osm_id": "10742533831", "name": "Chile Caliente", "fclass": "restaurant", "county_name": "Clark County" }, "geometry": { "type": "Point", "coordinates": [ -115.0536363, 36.0792732 ] } },
{ "type": "Feature", "properties": { "osm_id": "5741951924", "name": "Chili's", "fclass": "restaurant", "county_name": "Clark County" }, "geometry": { "type": "Point", "coordinates": [ -115.1362006, 36.082662 ] } },
{ "type": "Feature", "properties": { "osm_id": "5741952823", "name": "Chili's", "fclass": "restaurant", "county_name": "Clark County" }, "geometry": { "type": "Point", "coordinates": [ -115.1395188, 36.0808821 ] } },
{ "type": "Feature", "properties": { "osm_id": "10229695664", "name": "China a Go Go", "fclass": "restaurant", "county_name": "Clark County" }, "geometry": { "type": "Point", "coordinates": [ -115.2800603, 36.0530359 ] } },
{ "type": "Feature", "properties": { "osm_id": "10964370734", "name": "China a Go Go", "fclass": "restaurant", "county_name": "Clark County" }, "geometry": { "type": "Point", "coordinates": [ -115.0635942, 36.1110157 ] } },
{ "type": "Feature", "properties": { "osm_id": "3822204550", "name": "China A Gogo", "fclass": "restaurant", "county_name": "Clark County" }, "geometry": { "type": "Point", "coordinates": [ -115.0460652, 36.1580585 ] } },
{ "type": "Feature", "properties": { "osm_id": "12584370806", "name": "China A Gogo", "fclass": "restaurant", "county_name": "Clark County" }, "geometry": { "type": "Point", "coordinates": [ -115.2616876, 36.0189887 ] } },
{ "type": "Feature", "properties": { "osm_id": "12766255059", "name": "China A Go Go", "fclass": "restaurant", "county_name": "Clark County" }, "geometry": { "type": "Point", "coordinates": [ -115.2056671, 35.9974937 ] } },
{ "type": "Feature", "properties": { "osm_id": "11418193326", "name": "China A Go Go", "fclass": "restaurant", "county_name": "Clark County" }, "geometry": { "type": "Point", "coordinates": [ -115.281363, 36.2994324 ] } },
{ "type": "Feature", "properties": { "osm_id": "11783672079", "name": "CHINA A GO GO", "fclass": "restaurant", "county_name": "Clark County" }, "geometry": { "type": "Point", "coordinates": [ -115.3143372, 36.100531 ] } },
{ "type": "Feature", "properties": { "osm_id": "10967342818", "name": "China A Go Go and Sushi", "fclass": "restaurant", "county_name": "Clark County" }, "geometry": { "type": "Point", "coordinates": [ -114.8454451, 35.9748369 ] } },
{ "type": "Feature", "properties": { "osm_id": "4994190422", "name": "China Gourmet", "fclass": "restaurant", "county_name": "Clark County" }, "geometry": { "type": "Point", "coordinates": [ -115.2948341, 36.1447814 ] } },
{ "type": "Feature", "properties": { "osm_id": "11510316459", "name": "China Mama", "fclass": "restaurant", "county_name": "Clark County" }, "geometry": { "type": "Point", "coordinates": [ -115.1971773, 36.1273207 ] } },
{ "type": "Feature", "properties": { "osm_id": "13505337303", "name": "China Poblano", "fclass": "restaurant", "county_name": "Clark County" }, "geometry": { "type": "Point", "coordinates": [ -115.1745511, 36.1099026 ] } },
{ "type": "Feature", "properties": { "osm_id": "8600536099", "name": "Chinese Korean", "fclass": "restaurant", "county_name": "Clark County" }, "geometry": { "type": "Point", "coordinates": [ -115.1934632, 36.1440422 ] } },
{ "type": "Feature", "properties": { "osm_id": "12898511294", "name": "Chino's Mexican Kitchen", "fclass": "restaurant", "county_name": "Clark County" }, "geometry": { "type": "Point", "coordinates": [ -115.1013561, 36.0973111 ] } },
{ "type": "Feature", "properties": { "osm_id": "11510294061", "name": "ChoigoZip", "fclass": "restaurant", "county_name": "Clark County" }, "geometry": { "type": "Point", "coordinates": [ -115.2023765, 36.1260004 ] } },
{ "type": "Feature", "properties": { "osm_id": "13596604749", "name": "Chopstix", "fclass": "restaurant", "county_name": "Clark County" }, "geometry": { "type": "Point", "coordinates": [ -115.1208267, 36.0411395 ] } },
{ "type": "Feature", "properties": { "osm_id": "10229695660", "name": "Chop Stop", "fclass": "restaurant", "county_name": "Clark County" }, "geometry": { "type": "Point", "coordinates": [ -115.2795535, 36.0533378 ] } },
{ "type": "Feature", "properties": { "osm_id": "11506974780", "name": "Chubby Cattle", "fclass": "restaurant", "county_name": "Clark County" }, "geometry": { "type": "Point", "coordinates": [ -115.2018186, 36.1257055 ] } },
{ "type": "Feature", "properties": { "osm_id": "7139107103", "name": "Chuchote Thai Bistro & Desserts", "fclass": "restaurant", "county_name": "Clark County" }, "geometry": { "type": "Point", "coordinates": [ -115.1959004, 36.143969 ] } },
{ "type": "Feature", "properties": { "osm_id": "9531932789", "name": "Chuck E. Cheese", "fclass": "restaurant", "county_name": "Clark County" }, "geometry": { "type": "Point", "coordinates": [ -115.1518826, 36.23795 ] } },
{ "type": "Feature", "properties": { "osm_id": "10742377684", "name": "Chuck E. Cheese", "fclass": "restaurant", "county_name": "Clark County" }, "geometry": { "type": "Point", "coordinates": [ -115.0511412, 36.0625743 ] } },
{ "type": "Feature", "properties": { "osm_id": "13100012597", "name": "Chuck E. Cheese", "fclass": "restaurant", "county_name": "Clark County" }, "geometry": { "type": "Point", "coordinates": [ -115.307833, 36.1134378 ] } },
{ "type": "Feature", "properties": { "osm_id": "12569490535", "name": "Chuckwagon", "fclass": "restaurant", "county_name": "Clark County" }, "geometry": { "type": "Point", "coordinates": [ -114.5713757, 35.1618981 ] } },
{ "type": "Feature", "properties": { "osm_id": "3215535981", "name": "Chuck Wagon Restaurant", "fclass": "restaurant", "county_name": "Clark County" }, "geometry": { "type": "Point", "coordinates": [ -115.0593482, 36.1072491 ] } },
{ "type": "Feature", "properties": { "osm_id": "4670046962", "name": "Circus Buffet", "fclass": "restaurant", "county_name": "Clark County" }, "geometry": { "type": "Point", "coordinates": [ -115.164813, 36.1374432 ] } },
{ "type": "Feature", "properties": { "osm_id": "11336739969", "name": "Citizens Kitchen and Bar", "fclass": "restaurant", "county_name": "Clark County" }, "geometry": { "type": "Point", "coordinates": [ -115.1766518, 36.0917586 ] } },
{ "type": "Feature", "properties": { "osm_id": "12570513047", "name": "Claim Jumper", "fclass": "restaurant", "county_name": "Clark County" }, "geometry": { "type": "Point", "coordinates": [ -114.5732321, 35.1547206 ] } },
{ "type": "Feature", "properties": { "osm_id": "12591949256", "name": "Clove Indian Cuisine & Bar", "fclass": "restaurant", "county_name": "Clark County" }, "geometry": { "type": "Point", "coordinates": [ -115.2423316, 36.0597318 ] } },
{ "type": "Feature", "properties": { "osm_id": "13338981403", "name": "Club Ya-Mang", "fclass": "restaurant", "county_name": "Clark County" }, "geometry": { "type": "Point", "coordinates": [ -115.1434159, 36.1434676 ] } },
{ "type": "Feature", "properties": { "osm_id": "11510205635", "name": "Cô Anh Sandwich & Noodle Kitchen", "fclass": "restaurant", "county_name": "Clark County" }, "geometry": { "type": "Point", "coordinates": [ -115.2053371, 36.1253838 ] } },
{ "type": "Feature", "properties": { "osm_id": "1949403877", "name": "Coco's Bakery", "fclass": "restaurant", "county_name": "Clark County" }, "geometry": { "type": "Point", "coordinates": [ -115.165238, 36.1004202 ] } },
{ "type": "Feature", "properties": { "osm_id": "12119597756", "name": "Connection Thai Sushi", "fclass": "restaurant", "county_name": "Clark County" }, "geometry": { "type": "Point", "coordinates": [ -115.0805036, 36.0697352 ] } },
{ "type": "Feature", "properties": { "osm_id": "12597133056", "name": "Copper Whisk Café", "fclass": "restaurant", "county_name": "Clark County" }, "geometry": { "type": "Point", "coordinates": [ -115.201723, 36.1028523 ] } },
{ "type": "Feature", "properties": { "osm_id": "9730753943", "name": "Corcoran’s Irish Pub", "fclass": "restaurant", "county_name": "Clark County" }, "geometry": { "type": "Point", "coordinates": [ -115.1470095, 36.0817404 ] } },
{ "type": "Feature", "properties": { "osm_id": "10088281769", "name": "Craggy Range Sports Bar & Grill", "fclass": "restaurant", "county_name": "Clark County" }, "geometry": { "type": "Point", "coordinates": [ -115.081254, 36.0196617 ] } },
{ "type": "Feature", "properties": { "osm_id": "4742179543", "name": "Crazy Pita", "fclass": "restaurant", "county_name": "Clark County" }, "geometry": { "type": "Point", "coordinates": [ -115.0857275, 36.0212638 ] } },
{ "type": "Feature", "properties": { "osm_id": "12671723546", "name": "Crazy Pita", "fclass": "restaurant", "county_name": "Clark County" }, "geometry": { "type": "Point", "coordinates": [ -115.2428159, 36.040827 ] } },
{ "type": "Feature", "properties": { "osm_id": "10076225597", "name": "Crossroads Kitchen Las Vegas", "fclass": "restaurant", "county_name": "Clark County" }, "geometry": { "type": "Point", "coordinates": [ -115.1675091, 36.1345125 ] } },
{ "type": "Feature", "properties": { "osm_id": "12584370901", "name": "CrunCheese Korean Hot Dog", "fclass": "restaurant", "county_name": "Clark County" }, "geometry": { "type": "Point", "coordinates": [ -115.2616906, 36.0191088 ] } },
{ "type": "Feature", "properties": { "osm_id": "10017299217", "name": "cured & whey", "fclass": "restaurant", "county_name": "Clark County" }, "geometry": { "type": "Point", "coordinates": [ -115.1919131, 36.0758205 ] } },
{ "type": "Feature", "properties": { "osm_id": "9434505741", "name": "Curry Zen", "fclass": "restaurant", "county_name": "Clark County" }, "geometry": { "type": "Point", "coordinates": [ -115.209414, 36.1268074 ] } },
{ "type": "Feature", "properties": { "osm_id": "4668742183", "name": "CUT", "fclass": "restaurant", "county_name": "Clark County" }, "geometry": { "type": "Point", "coordinates": [ -115.1682073, 36.1233879 ] } },
{ "type": "Feature", "properties": { "osm_id": "12544901759", "name": "Dakao Sandwiches", "fclass": "restaurant", "county_name": "Clark County" }, "geometry": { "type": "Point", "coordinates": [ -115.2195536, 36.1265096 ] } },
{ "type": "Feature", "properties": { "osm_id": "7021695355", "name": "Dave & Buster's", "fclass": "restaurant", "county_name": "Clark County" }, "geometry": { "type": "Point", "coordinates": [ -115.331895, 36.1488363 ] } },
{ "type": "Feature", "properties": { "osm_id": "4131260257", "name": "David Wong's Pan Asian", "fclass": "restaurant", "county_name": "Clark County" }, "geometry": { "type": "Point", "coordinates": [ -115.2785508, 36.1350982 ] } },
{ "type": "Feature", "properties": { "osm_id": "4829551221", "name": "Della's Kitchen", "fclass": "restaurant", "county_name": "Clark County" }, "geometry": { "type": "Point", "coordinates": [ -115.1770685, 36.0928218 ] } },
{ "type": "Feature", "properties": { "osm_id": "4668742181", "name": "Delmonico Steakhouse", "fclass": "restaurant", "county_name": "Clark County" }, "geometry": { "type": "Point", "coordinates": [ -115.1686955, 36.1231561 ] } },
{ "type": "Feature", "properties": { "osm_id": "11655902269", "name": "Denny's", "fclass": "restaurant", "county_name": "Clark County" }, "geometry": { "type": "Point", "coordinates": [ -115.1651849, 36.1004245 ] } },
{ "type": "Feature", "properties": { "osm_id": "4449013291", "name": "Denny's", "fclass": "restaurant", "county_name": "Clark County" }, "geometry": { "type": "Point", "coordinates": [ -115.2663741, 36.1442517 ] } },
{ "type": "Feature", "properties": { "osm_id": "3474537671", "name": "Denny's", "fclass": "restaurant", "county_name": "Clark County" }, "geometry": { "type": "Point", "coordinates": [ -115.0578247, 36.1061288 ] } },
{ "type": "Feature", "properties": { "osm_id": "3196293389", "name": "Denny's", "fclass": "restaurant", "county_name": "Clark County" }, "geometry": { "type": "Point", "coordinates": [ -115.171762, 36.1209774 ] } },
{ "type": "Feature", "properties": { "osm_id": "2146969419", "name": "Denny's", "fclass": "restaurant", "county_name": "Clark County" }, "geometry": { "type": "Point", "coordinates": [ -115.1414844, 36.169961 ] } },
{ "type": "Feature", "properties": { "osm_id": "9401051467", "name": "Denny's", "fclass": "restaurant", "county_name": "Clark County" }, "geometry": { "type": "Point", "coordinates": [ -114.9197497, 35.465842 ] } },
{ "type": "Feature", "properties": { "osm_id": "12650798113", "name": "Denny's", "fclass": "restaurant", "county_name": "Clark County" }, "geometry": { "type": "Point", "coordinates": [ -114.571392, 35.1607185 ] } },
{ "type": "Feature", "properties": { "osm_id": "1580029658", "name": "Denny's", "fclass": "restaurant", "county_name": "Clark County" }, "geometry": { "type": "Point", "coordinates": [ -115.2482826, 36.2385515 ] } },
{ "type": "Feature", "properties": { "osm_id": "4015588711", "name": "Denny's", "fclass": "restaurant", "county_name": "Clark County" }, "geometry": { "type": "Point", "coordinates": [ -115.1723993, 36.104061 ] } },
{ "type": "Feature", "properties": { "osm_id": "457432482", "name": "Denny's", "fclass": "restaurant", "county_name": "Clark County" }, "geometry": { "type": "Point", "coordinates": [ -115.171725, 36.0591086 ] } },
{ "type": "Feature", "properties": { "osm_id": "2669698757", "name": "D Grill", "fclass": "restaurant", "county_name": "Clark County" }, "geometry": { "type": "Point", "coordinates": [ -115.142522, 36.1695613 ] } },
{ "type": "Feature", "properties": { "osm_id": "4669431060", "name": "Diablo's Cantina", "fclass": "restaurant", "county_name": "Clark County" }, "geometry": { "type": "Point", "coordinates": [ -115.1751818, 36.0955372 ] } },
{ "type": "Feature", "properties": { "osm_id": "455186902", "name": "Dickey's Barbecue Pit", "fclass": "restaurant", "county_name": "Clark County" }, "geometry": { "type": "Point", "coordinates": [ -115.1715391, 36.0544257 ] } },
{ "type": "Feature", "properties": { "osm_id": "4669220522", "name": "Dick's Last Resort", "fclass": "restaurant", "county_name": "Clark County" }, "geometry": { "type": "Point", "coordinates": [ -115.1753002, 36.0994793 ] } },
{ "type": "Feature", "properties": { "osm_id": "11023672899", "name": "Diego's Farm Café", "fclass": "restaurant", "county_name": "Clark County" }, "geometry": { "type": "Point", "coordinates": [ -115.3158705, 36.291457 ] } },
{ "type": "Feature", "properties": { "osm_id": "12521447270", "name": "Dim Sum Cafe", "fclass": "restaurant", "county_name": "Clark County" }, "geometry": { "type": "Point", "coordinates": [ -115.3144797, 36.1216563 ] } },
{ "type": "Feature", "properties": { "osm_id": "12544906297", "name": "Dim Sumlicious", "fclass": "restaurant", "county_name": "Clark County" }, "geometry": { "type": "Point", "coordinates": [ -115.2189554, 36.1265356 ] } },
{ "type": "Feature", "properties": { "osm_id": "11774627362", "name": "Din Tai Fung", "fclass": "restaurant", "county_name": "Clark County" }, "geometry": { "type": "Point", "coordinates": [ -115.1758741, 36.1084176 ] } },
{ "type": "Feature", "properties": { "osm_id": "10743775554", "name": "DJ's All-American Tavern", "fclass": "restaurant", "county_name": "Clark County" }, "geometry": { "type": "Point", "coordinates": [ -115.048066, 36.0441059 ] } },
{ "type": "Feature", "properties": { "osm_id": "12766255073", "name": "DOMA The Korean BBQ", "fclass": "restaurant", "county_name": "Clark County" }, "geometry": { "type": "Point", "coordinates": [ -115.2052367, 35.9959155 ] } },
{ "type": "Feature", "properties": { "osm_id": "13256879335", "name": "Dom Demarco's", "fclass": "restaurant", "county_name": "Clark County" }, "geometry": { "type": "Point", "coordinates": [ -115.3112591, 36.1577915 ] } },
{ "type": "Feature", "properties": { "osm_id": "9694300208", "name": "Don Tortaco Mexican Grill", "fclass": "restaurant", "county_name": "Clark County" }, "geometry": { "type": "Point", "coordinates": [ -115.2773866, 36.0208777 ] } },
{ "type": "Feature", "properties": { "osm_id": "5442148739", "name": "Double Helix Wine & Whiskey Lounge", "fclass": "restaurant", "county_name": "Clark County" }, "geometry": { "type": "Point", "coordinates": [ -115.1778819, 36.0681223 ] } },
{ "type": "Feature", "properties": { "osm_id": "12843104972", "name": "Double Zero Pie & Pub", "fclass": "restaurant", "county_name": "Clark County" }, "geometry": { "type": "Point", "coordinates": [ -115.1911216, 36.1261496 ] } },
{ "type": "Feature", "properties": { "osm_id": "12766255144", "name": "Dragon Tiger Noodle Co.", "fclass": "restaurant", "county_name": "Clark County" }, "geometry": { "type": "Point", "coordinates": [ -115.2068638, 35.9957283 ] } },
{ "type": "Feature", "properties": { "osm_id": "8155506717", "name": "Durango taco shop", "fclass": "restaurant", "county_name": "Clark County" }, "geometry": { "type": "Point", "coordinates": [ -115.2965584, 36.1160438 ] } },
{ "type": "Feature", "properties": { "osm_id": "10853560433", "name": "Durango Taco Shop", "fclass": "restaurant", "county_name": "Clark County" }, "geometry": { "type": "Point", "coordinates": [ -115.2824157, 36.3025198 ] } },
{ "type": "Feature", "properties": { "osm_id": "13398002861", "name": "Dutch Bros Cafe", "fclass": "restaurant", "county_name": "Clark County" }, "geometry": { "type": "Point", "coordinates": [ -115.2978764, 36.1020066 ] } },
{ "type": "Feature", "properties": { "osm_id": "4668786299", "name": "Earl of Sandwich", "fclass": "restaurant", "county_name": "Clark County" }, "geometry": { "type": "Point", "coordinates": [ -115.175616, 36.1178304 ] } },
{ "type": "Feature", "properties": { "osm_id": "11342851632", "name": "Echo & Rig", "fclass": "restaurant", "county_name": "Clark County" }, "geometry": { "type": "Point", "coordinates": [ -115.0882129, 36.0212959 ] } },
{ "type": "Feature", "properties": { "osm_id": "11501797276", "name": "edible", "fclass": "restaurant", "county_name": "Clark County" }, "geometry": { "type": "Point", "coordinates": [ -115.2417257, 36.0648429 ] } },
{ "type": "Feature", "properties": { "osm_id": "11502429441", "name": "edible", "fclass": "restaurant", "county_name": "Clark County" }, "geometry": { "type": "Point", "coordinates": [ -115.1705909, 36.0411699 ] } },
{ "type": "Feature", "properties": { "osm_id": "13596489167", "name": "EGGscellent", "fclass": "restaurant", "county_name": "Clark County" }, "geometry": { "type": "Point", "coordinates": [ -115.1186299, 36.0556452 ] } },
{ "type": "Feature", "properties": { "osm_id": "11934026143", "name": "Eggslut", "fclass": "restaurant", "county_name": "Clark County" }, "geometry": { "type": "Point", "coordinates": [ -115.1741633, 36.1099921 ] } },
{ "type": "Feature", "properties": { "osm_id": "4862802422", "name": "El Burrito", "fclass": "restaurant", "county_name": "Clark County" }, "geometry": { "type": "Point", "coordinates": [ -115.2796008, 36.2106694 ] } },
{ "type": "Feature", "properties": { "osm_id": "9719070376", "name": "Ellis Island Barbecue", "fclass": "restaurant", "county_name": "Clark County" }, "geometry": { "type": "Point", "coordinates": [ -115.1632917, 36.1132001 ] } },
{ "type": "Feature", "properties": { "osm_id": "12836915610", "name": "El Nopal Mexican Grill", "fclass": "restaurant", "county_name": "Clark County" }, "geometry": { "type": "Point", "coordinates": [ -115.1544946, 36.238349 ] } },
{ "type": "Feature", "properties": { "osm_id": "4670111626", "name": "El Nopal Mexican Grill", "fclass": "restaurant", "county_name": "Clark County" }, "geometry": { "type": "Point", "coordinates": [ -115.156923, 36.1475966 ] } },
{ "type": "Feature", "properties": { "osm_id": "10853500663", "name": "El Norte Taco Shop", "fclass": "restaurant", "county_name": "Clark County" }, "geometry": { "type": "Point", "coordinates": [ -115.2884847, 36.2966679 ] } },
{ "type": "Feature", "properties": { "osm_id": "6436213885", "name": "El Pollo Mobile", "fclass": "restaurant", "county_name": "Clark County" }, "geometry": { "type": "Point", "coordinates": [ -115.0844923, 36.1959726 ] } },
{ "type": "Feature", "properties": { "osm_id": "11510294068", "name": "El Steak Burrito", "fclass": "restaurant", "county_name": "Clark County" }, "geometry": { "type": "Point", "coordinates": [ -115.2038623, 36.1265612 ] } },
{ "type": "Feature", "properties": { "osm_id": "13254795602", "name": "Ely' Restaurant and Cafe", "fclass": "restaurant", "county_name": "Clark County" }, "geometry": { "type": "Point", "coordinates": [ -115.2070062, 36.1462509 ] } },
{ "type": "Feature", "properties": { "osm_id": "4668886736", "name": "Emeril's New Orleans Fish House", "fclass": "restaurant", "county_name": "Clark County" }, "geometry": { "type": "Point", "coordinates": [ -115.1688386, 36.1028578 ] } },
{ "type": "Feature", "properties": { "osm_id": "11137474295", "name": "Emilia's", "fclass": "restaurant", "county_name": "Clark County" }, "geometry": { "type": "Point", "coordinates": [ -114.9831454, 36.0320207 ] } },
{ "type": "Feature", "properties": { "osm_id": "11019030858", "name": "Emilio's Contemporary Mexican Kitchen", "fclass": "restaurant", "county_name": "Clark County" }, "geometry": { "type": "Point", "coordinates": [ -115.305522, 36.0630562 ] } },
{ "type": "Feature", "properties": { "osm_id": "11953181510", "name": "Enjera", "fclass": "restaurant", "county_name": "Clark County" }, "geometry": { "type": "Point", "coordinates": [ -115.2231606, 36.0989767 ] } },
{ "type": "Feature", "properties": { "osm_id": "13008489436", "name": "Enjoy Thai Cafe", "fclass": "restaurant", "county_name": "Clark County" }, "geometry": { "type": "Point", "coordinates": [ -115.1013654, 36.0420099 ] } },
{ "type": "Feature", "properties": { "osm_id": "12400346754", "name": "Estiatorio Milos", "fclass": "restaurant", "county_name": "Clark County" }, "geometry": { "type": "Point", "coordinates": [ -115.1688081, 36.1228229 ] } },
{ "type": "Feature", "properties": { "osm_id": "1835694798", "name": "Evan's Old Town Grille", "fclass": "restaurant", "county_name": "Clark County" }, "geometry": { "type": "Point", "coordinates": [ -114.8351629, 35.9783566 ] } },
{ "type": "Feature", "properties": { "osm_id": "1700046186", "name": "Famiglia Pizzaria", "fclass": "restaurant", "county_name": "Clark County" }, "geometry": { "type": "Point", "coordinates": [ -115.2781574, 36.0424503 ] } },
{ "type": "Feature", "properties": { "osm_id": "12663166287", "name": "Fat Choy's", "fclass": "restaurant", "county_name": "Clark County" }, "geometry": { "type": "Point", "coordinates": [ -115.1469269, 36.143533 ] } },
{ "type": "Feature", "properties": { "osm_id": "10743775553", "name": "Fausto's", "fclass": "restaurant", "county_name": "Clark County" }, "geometry": { "type": "Point", "coordinates": [ -115.0480767, 36.0437746 ] } },
{ "type": "Feature", "properties": { "osm_id": "8235964887", "name": "Favorite Bistro Las Vegas", "fclass": "restaurant", "county_name": "Clark County" }, "geometry": { "type": "Point", "coordinates": [ -115.169858, 36.1177082 ] } },
{ "type": "Feature", "properties": { "osm_id": "5421566529", "name": "Feast Buffet", "fclass": "restaurant", "county_name": "Clark County" }, "geometry": { "type": "Point", "coordinates": [ -115.332497, 36.1565319 ] } },
{ "type": "Feature", "properties": { "osm_id": "13373124175", "name": "Fed Up Kitchen", "fclass": "restaurant", "county_name": "Clark County" }, "geometry": { "type": "Point", "coordinates": [ -115.2850723, 36.1596611 ] } },
{ "type": "Feature", "properties": { "osm_id": "6582537458", "name": "Feed Your Soul", "fclass": "restaurant", "county_name": "Clark County" }, "geometry": { "type": "Point", "coordinates": [ -115.082429, 36.023061 ] } },
{ "type": "Feature", "properties": { "osm_id": "4670111623", "name": "Fellini’s Ristorante Italiano", "fclass": "restaurant", "county_name": "Clark County" }, "geometry": { "type": "Point", "coordinates": [ -115.1553938, 36.1481338 ] } },
{ "type": "Feature", "properties": { "osm_id": "10229695657", "name": "Fiesta Filipina Cuisine", "fclass": "restaurant", "county_name": "Clark County" }, "geometry": { "type": "Point", "coordinates": [ -115.2780564, 36.0539034 ] } },
{ "type": "Feature", "properties": { "osm_id": "13256713580", "name": "Filo Grill Mediterranean Restaurant", "fclass": "restaurant", "county_name": "Clark County" }, "geometry": { "type": "Point", "coordinates": [ -115.2539991, 36.1431029 ] } },
{ "type": "Feature", "properties": { "osm_id": "12842742800", "name": "Fine Company", "fclass": "restaurant", "county_name": "Clark County" }, "geometry": { "type": "Point", "coordinates": [ -115.3329204, 36.1509027 ] } },
{ "type": "Feature", "properties": { "osm_id": "13231742001", "name": "First Watch", "fclass": "restaurant", "county_name": "Clark County" }, "geometry": { "type": "Point", "coordinates": [ -115.1285761, 36.2401507 ] } },
{ "type": "Feature", "properties": { "osm_id": "13231726101", "name": "First Watch", "fclass": "restaurant", "county_name": "Clark County" }, "geometry": { "type": "Point", "coordinates": [ -115.1285761, 36.2401507 ] } },
{ "type": "Feature", "properties": { "osm_id": "12091021180", "name": "Flame Kabob", "fclass": "restaurant", "county_name": "Clark County" }, "geometry": { "type": "Point", "coordinates": [ -115.0379335, 36.054826 ] } },
{ "type": "Feature", "properties": { "osm_id": "4015588714", "name": "Flour & Barley", "fclass": "restaurant", "county_name": "Clark County" }, "geometry": { "type": "Point", "coordinates": [ -115.1702674, 36.1173688 ] } },
{ "type": "Feature", "properties": { "osm_id": "12899591210", "name": "Flower Child", "fclass": "restaurant", "county_name": "Clark County" }, "geometry": { "type": "Point", "coordinates": [ -115.292275, 36.160507 ] } },
{ "type": "Feature", "properties": { "osm_id": "13062642218", "name": "Foodie Fit", "fclass": "restaurant", "county_name": "Clark County" }, "geometry": { "type": "Point", "coordinates": [ -115.1214029, 36.0415921 ] } },
{ "type": "Feature", "properties": { "osm_id": "8930473358", "name": "Forte Tapas", "fclass": "restaurant", "county_name": "Clark County" }, "geometry": { "type": "Point", "coordinates": [ -115.241769, 36.1124563 ] } },
{ "type": "Feature", "properties": { "osm_id": "11510205637", "name": "Fortune", "fclass": "restaurant", "county_name": "Clark County" }, "geometry": { "type": "Point", "coordinates": [ -115.2109953, 36.1266676 ] } },
{ "type": "Feature", "properties": { "osm_id": "2903451550", "name": "Fox Smokehouse BBQ", "fclass": "restaurant", "county_name": "Clark County" }, "geometry": { "type": "Point", "coordinates": [ -114.8433697, 35.9745721 ] } },
{ "type": "Feature", "properties": { "osm_id": "10815070500", "name": "Frijoles & Frescas", "fclass": "restaurant", "county_name": "Clark County" }, "geometry": { "type": "Point", "coordinates": [ -115.2535058, 36.2745376 ] } },
{ "type": "Feature", "properties": { "osm_id": "11757226518", "name": "Frijoles & Frescas Grilled Tacos", "fclass": "restaurant", "county_name": "Clark County" }, "geometry": { "type": "Point", "coordinates": [ -115.0621969, 36.1566847 ] } },
{ "type": "Feature", "properties": { "osm_id": "12597149796", "name": "Fuddruckers", "fclass": "restaurant", "county_name": "Clark County" }, "geometry": { "type": "Point", "coordinates": [ -115.202517, 36.1031785 ] } },
{ "type": "Feature", "properties": { "osm_id": "6810625572", "name": "Fuego Mexican Kitchen", "fclass": "restaurant", "county_name": "Clark County" }, "geometry": { "type": "Point", "coordinates": [ -115.2665092, 36.0211407 ] } },
{ "type": "Feature", "properties": { "osm_id": "12608938764", "name": "Fukumimi Ramen", "fclass": "restaurant", "county_name": "Clark County" }, "geometry": { "type": "Point", "coordinates": [ -115.117367, 36.1004656 ] } },
{ "type": "Feature", "properties": { "osm_id": "4668692148", "name": "Fulton Street Food Hall", "fclass": "restaurant", "county_name": "Clark County" }, "geometry": { "type": "Point", "coordinates": [ -115.1710575, 36.1193256 ] } },
{ "type": "Feature", "properties": { "osm_id": "13594397145", "name": "Fuzen Pho", "fclass": "restaurant", "county_name": "Clark County" }, "geometry": { "type": "Point", "coordinates": [ -114.9769167, 36.0406339 ] } },
{ "type": "Feature", "properties": { "osm_id": "3793717442", "name": "Gallagher's", "fclass": "restaurant", "county_name": "Clark County" }, "geometry": { "type": "Point", "coordinates": [ -115.1742518, 36.1025514 ] } },
{ "type": "Feature", "properties": { "osm_id": "4950082022", "name": "GangNam Asian BBQ Dining", "fclass": "restaurant", "county_name": "Clark County" }, "geometry": { "type": "Point", "coordinates": [ -115.1510316, 36.1093579 ] } },
{ "type": "Feature", "properties": { "osm_id": "6723677868", "name": "Garionban", "fclass": "restaurant", "county_name": "Clark County" }, "geometry": { "type": "Point", "coordinates": [ -115.2024665, 36.1259968 ] } },
{ "type": "Feature", "properties": { "osm_id": "12313721183", "name": "General Admission", "fclass": "restaurant", "county_name": "Clark County" }, "geometry": { "type": "Point", "coordinates": [ -115.2773599, 36.0647963 ] } },
{ "type": "Feature", "properties": { "osm_id": "10742403727", "name": "Gen Korean BBQ", "fclass": "restaurant", "county_name": "Clark County" }, "geometry": { "type": "Point", "coordinates": [ -115.0424556, 36.0666317 ] } },
{ "type": "Feature", "properties": { "osm_id": "10696154434", "name": "Giada", "fclass": "restaurant", "county_name": "Clark County" }, "geometry": { "type": "Point", "coordinates": [ -115.1723407, 36.114934 ] } },
{ "type": "Feature", "properties": { "osm_id": "8595843320", "name": "Gianna's Hand Tossed Pizza", "fclass": "restaurant", "county_name": "Clark County" }, "geometry": { "type": "Point", "coordinates": [ -115.1901796, 36.1456957 ] } },
{ "type": "Feature", "properties": { "osm_id": "1398028257", "name": "Giuseppe's Bar and Grill", "fclass": "restaurant", "county_name": "Clark County" }, "geometry": { "type": "Point", "coordinates": [ -115.2799164, 36.0786422 ] } },
{ "type": "Feature", "properties": { "osm_id": "3681713657", "name": "Golden China", "fclass": "restaurant", "county_name": "Clark County" }, "geometry": { "type": "Point", "coordinates": [ -115.0904647, 36.1171166 ] } },
{ "type": "Feature", "properties": { "osm_id": "10739772162", "name": "Golden Corral", "fclass": "restaurant", "county_name": "Clark County" }, "geometry": { "type": "Point", "coordinates": [ -115.0485972, 36.0631982 ] } },
{ "type": "Feature", "properties": { "osm_id": "4572189294", "name": "Gold mine Bar & Grill", "fclass": "restaurant", "county_name": "Clark County" }, "geometry": { "type": "Point", "coordinates": [ -115.1629389, 36.1181288 ] } },
{ "type": "Feature", "properties": { "osm_id": "4668886732", "name": "Gonzalez y Gonzalez", "fclass": "restaurant", "county_name": "Clark County" }, "geometry": { "type": "Point", "coordinates": [ -115.1737188, 36.1027508 ] } },
{ "type": "Feature", "properties": { "osm_id": "4634375195", "name": "Gordon Ramsay BurGR", "fclass": "restaurant", "county_name": "Clark County" }, "geometry": { "type": "Point", "coordinates": [ -115.1720818, 36.1107195 ] } },
{ "type": "Feature", "properties": { "osm_id": "4668653127", "name": "Gordon Ramsay Steak", "fclass": "restaurant", "county_name": "Clark County" }, "geometry": { "type": "Point", "coordinates": [ -115.1712029, 36.1127744 ] } },
{ "type": "Feature", "properties": { "osm_id": "8235964888", "name": "Gordon Ramsey's Fish n Chips", "fclass": "restaurant", "county_name": "Clark County" }, "geometry": { "type": "Point", "coordinates": [ -115.1710999, 36.1175088 ] } },
{ "type": "Feature", "properties": { "osm_id": "10853560438", "name": "Gourmet China", "fclass": "restaurant", "county_name": "Clark County" }, "geometry": { "type": "Point", "coordinates": [ -115.2820828, 36.3026908 ] } },
{ "type": "Feature", "properties": { "osm_id": "13334588003", "name": "Gourmet China", "fclass": "restaurant", "county_name": "Clark County" }, "geometry": { "type": "Point", "coordinates": [ -115.1375155, 36.1393543 ] } },
{ "type": "Feature", "properties": { "osm_id": "4668742179", "name": "Grand Lux Cafe", "fclass": "restaurant", "county_name": "Clark County" }, "geometry": { "type": "Point", "coordinates": [ -115.1685024, 36.1216416 ] } },
{ "type": "Feature", "properties": { "osm_id": "11367642279", "name": "Grand Wok Noodle Bar", "fclass": "restaurant", "county_name": "Clark County" }, "geometry": { "type": "Point", "coordinates": [ -115.170304, 36.1023736 ] } },
{ "type": "Feature", "properties": { "osm_id": "8374620917", "name": "Greene St. Kitchen", "fclass": "restaurant", "county_name": "Clark County" }, "geometry": { "type": "Point", "coordinates": [ -115.194374, 36.1142482 ] } },
{ "type": "Feature", "properties": { "osm_id": "12508484396", "name": "Greens and Proteins", "fclass": "restaurant", "county_name": "Clark County" }, "geometry": { "type": "Point", "coordinates": [ -115.1458762, 36.1638527 ] } },
{ "type": "Feature", "properties": { "osm_id": "8568261457", "name": "Greens Grill", "fclass": "restaurant", "county_name": "Clark County" }, "geometry": { "type": "Point", "coordinates": [ -115.1738746, 36.1616242 ] } },
{ "type": "Feature", "properties": { "osm_id": "12492910886", "name": "Griddlecakes", "fclass": "restaurant", "county_name": "Clark County" }, "geometry": { "type": "Point", "coordinates": [ -115.1172262, 36.0171537 ] } },
{ "type": "Feature", "properties": { "osm_id": "11063747490", "name": "Griddlecakes", "fclass": "restaurant", "county_name": "Clark County" }, "geometry": { "type": "Point", "coordinates": [ -115.1328481, 35.9413737 ] } },
{ "type": "Feature", "properties": { "osm_id": "5358963852", "name": "Grimaldi's", "fclass": "restaurant", "county_name": "Clark County" }, "geometry": { "type": "Point", "coordinates": [ -115.1194355, 36.0152263 ] } },
{ "type": "Feature", "properties": { "osm_id": "4668742185", "name": "Grimaldi's Pizzeria", "fclass": "restaurant", "county_name": "Clark County" }, "geometry": { "type": "Point", "coordinates": [ -115.168354, 36.124885 ] } },
{ "type": "Feature", "properties": { "osm_id": "11860985245", "name": "Guardian Dining Facility", "fclass": "restaurant", "county_name": "Clark County" }, "geometry": { "type": "Point", "coordinates": [ -115.6597458, 36.5926912 ] } },
{ "type": "Feature", "properties": { "osm_id": "11774076928", "name": "Gursha Ethiopian Restaurant", "fclass": "restaurant", "county_name": "Clark County" }, "geometry": { "type": "Point", "coordinates": [ -115.1909995, 36.1224128 ] } },
{ "type": "Feature", "properties": { "osm_id": "12577856198", "name": "Guy Fieri's El Burro Borracho", "fclass": "restaurant", "county_name": "Clark County" }, "geometry": { "type": "Point", "coordinates": [ -114.5767415, 35.1442722 ] } },
{ "type": "Feature", "properties": { "osm_id": "4668688404", "name": "Guy Fieri's Vegas Kitchen & Bar", "fclass": "restaurant", "county_name": "Clark County" }, "geometry": { "type": "Point", "coordinates": [ -115.1722088, 36.1184064 ] } },
{ "type": "Feature", "properties": { "osm_id": "13320092797", "name": "Gyro Express Philly Steaks", "fclass": "restaurant", "county_name": "Clark County" }, "geometry": { "type": "Point", "coordinates": [ -115.1553455, 36.0144135 ] } },
{ "type": "Feature", "properties": { "osm_id": "10999067653", "name": "Gyu+", "fclass": "restaurant", "county_name": "Clark County" }, "geometry": { "type": "Point", "coordinates": [ -115.2772121, 36.0644182 ] } },
{ "type": "Feature", "properties": { "osm_id": "8573137314", "name": "Habaneros Taco Grill", "fclass": "restaurant", "county_name": "Clark County" }, "geometry": { "type": "Point", "coordinates": [ -115.2870366, 36.2776625 ] } },
{ "type": "Feature", "properties": { "osm_id": "12617518445", "name": "Hammers Grill & Bar", "fclass": "restaurant", "county_name": "Clark County" }, "geometry": { "type": "Point", "coordinates": [ -114.960766, 36.013275 ] } },
{ "type": "Feature", "properties": { "osm_id": "2871584247", "name": "Harbor House Cafe", "fclass": "restaurant", "county_name": "Clark County" }, "geometry": { "type": "Point", "coordinates": [ -114.7705643, 36.0305482 ] } },
{ "type": "Feature", "properties": { "osm_id": "643384548", "name": "Hard Rock Cafe", "fclass": "restaurant", "county_name": "Clark County" }, "geometry": { "type": "Point", "coordinates": [ -115.1722166, 36.1041592 ] } },
{ "type": "Feature", "properties": { "osm_id": "13461048374", "name": "Harvest", "fclass": "restaurant", "county_name": "Clark County" }, "geometry": { "type": "Point", "coordinates": [ -115.1773747, 36.1112064 ] } },
{ "type": "Feature", "properties": { "osm_id": "4668688406", "name": "Hash House A Go Go", "fclass": "restaurant", "county_name": "Clark County" }, "geometry": { "type": "Point", "coordinates": [ -115.1710989, 36.1181377 ] } },
{ "type": "Feature", "properties": { "osm_id": "304727428", "name": "Hash House Restaurant", "fclass": "restaurant", "county_name": "Clark County" }, "geometry": { "type": "Point", "coordinates": [ -115.2093389, 36.14222 ] } },
{ "type": "Feature", "properties": { "osm_id": "13116300980", "name": "Havana 1957", "fclass": "restaurant", "county_name": "Clark County" }, "geometry": { "type": "Point", "coordinates": [ -115.1717094, 36.1167383 ] } },
{ "type": "Feature", "properties": { "osm_id": "13596448375", "name": "Havana Grill", "fclass": "restaurant", "county_name": "Clark County" }, "geometry": { "type": "Point", "coordinates": [ -115.1149592, 36.0283444 ] } },
{ "type": "Feature", "properties": { "osm_id": "5421566464", "name": "Hearthstone", "fclass": "restaurant", "county_name": "Clark County" }, "geometry": { "type": "Point", "coordinates": [ -115.3339002, 36.1569693 ] } },
{ "type": "Feature", "properties": { "osm_id": "4668886735", "name": "Hecho En Vegas Mexican Grill & Cantina", "fclass": "restaurant", "county_name": "Clark County" }, "geometry": { "type": "Point", "coordinates": [ -115.168441, 36.1031469 ] } },
{ "type": "Feature", "properties": { "osm_id": "11048710036", "name": "Hella's Bakery Café", "fclass": "restaurant", "county_name": "Clark County" }, "geometry": { "type": "Point", "coordinates": [ -114.9927406, 36.0132338 ] } },
{ "type": "Feature", "properties": { "osm_id": "3438386373", "name": "Hello Tokyo", "fclass": "restaurant", "county_name": "Clark County" }, "geometry": { "type": "Point", "coordinates": [ -115.0902096, 36.1161627 ] } },
{ "type": "Feature", "properties": { "osm_id": "6817701585", "name": "Hitching Post Saloon & Steakhouse", "fclass": "restaurant", "county_name": "Clark County" }, "geometry": { "type": "Point", "coordinates": [ -115.0829667, 36.2232878 ] } },
{ "type": "Feature", "properties": { "osm_id": "11372683769", "name": "Hobak Korean BBQ", "fclass": "restaurant", "county_name": "Clark County" }, "geometry": { "type": "Point", "coordinates": [ -115.2219511, 36.1260227 ] } },
{ "type": "Feature", "properties": { "osm_id": "12766255066", "name": "Hola Modern Mexican Cocina + Cantina", "fclass": "restaurant", "county_name": "Clark County" }, "geometry": { "type": "Point", "coordinates": [ -115.2053968, 35.9981354 ] } },
{ "type": "Feature", "properties": { "osm_id": "11510205641", "name": "Honey Pig", "fclass": "restaurant", "county_name": "Clark County" }, "geometry": { "type": "Point", "coordinates": [ -115.2053318, 36.1252097 ] } },
{ "type": "Feature", "properties": { "osm_id": "12899591222", "name": "Honey Salt", "fclass": "restaurant", "county_name": "Clark County" }, "geometry": { "type": "Point", "coordinates": [ -115.2929718, 36.1605509 ] } },
{ "type": "Feature", "properties": { "osm_id": "12519494599", "name": "Hong Kong Garden", "fclass": "restaurant", "county_name": "Clark County" }, "geometry": { "type": "Point", "coordinates": [ -115.2135991, 36.1267106 ] } },
{ "type": "Feature", "properties": { "osm_id": "12584370804", "name": "Honor BBQ", "fclass": "restaurant", "county_name": "Clark County" }, "geometry": { "type": "Point", "coordinates": [ -115.262013, 36.0187359 ] } },
{ "type": "Feature", "properties": { "osm_id": "1699992058", "name": "Hooters", "fclass": "restaurant", "county_name": "Clark County" }, "geometry": { "type": "Point", "coordinates": [ -115.2435729, 36.058337 ] } },
{ "type": "Feature", "properties": { "osm_id": "8241709638", "name": "Hooters", "fclass": "restaurant", "county_name": "Clark County" }, "geometry": { "type": "Point", "coordinates": [ -115.1673034, 36.0998354 ] } },
{ "type": "Feature", "properties": { "osm_id": "9983979917", "name": "Hot n Juicy Crawfish", "fclass": "restaurant", "county_name": "Clark County" }, "geometry": { "type": "Point", "coordinates": [ -115.2063651, 36.1266013 ] } },
{ "type": "Feature", "properties": { "osm_id": "13478325901", "name": "Hot N Juicy Crawfish", "fclass": "restaurant", "county_name": "Clark County" }, "geometry": { "type": "Point", "coordinates": [ -115.118054, 36.0144752 ] } },
{ "type": "Feature", "properties": { "osm_id": "10710015968", "name": "Humberto's Mexican Food", "fclass": "restaurant", "county_name": "Clark County" }, "geometry": { "type": "Point", "coordinates": [ -114.6225616, 35.1421653 ] } },
{ "type": "Feature", "properties": { "osm_id": "13167008458", "name": "Hummus Republic", "fclass": "restaurant", "county_name": "Clark County" }, "geometry": { "type": "Point", "coordinates": [ -115.1158713, 36.2402334 ] } },
{ "type": "Feature", "properties": { "osm_id": "12585920308", "name": "Humo Barbecue", "fclass": "restaurant", "county_name": "Clark County" }, "geometry": { "type": "Point", "coordinates": [ -115.0940785, 36.0717033 ] } },
{ "type": "Feature", "properties": { "osm_id": "8232576517", "name": "Hussong’s Cantina", "fclass": "restaurant", "county_name": "Clark County" }, "geometry": { "type": "Point", "coordinates": [ -115.289217, 36.163632 ] } },
{ "type": "Feature", "properties": { "osm_id": "9434518211", "name": "Hwaro", "fclass": "restaurant", "county_name": "Clark County" }, "geometry": { "type": "Point", "coordinates": [ -115.2097839, 36.1270192 ] } },
{ "type": "Feature", "properties": { "osm_id": "11510294041", "name": "Ichiza", "fclass": "restaurant", "county_name": "Clark County" }, "geometry": { "type": "Point", "coordinates": [ -115.1977834, 36.1259471 ] } },
{ "type": "Feature", "properties": { "osm_id": "13596604750", "name": "IDK Pizza", "fclass": "restaurant", "county_name": "Clark County" }, "geometry": { "type": "Point", "coordinates": [ -115.120832, 36.0412328 ] } },
{ "type": "Feature", "properties": { "osm_id": "11048710034", "name": "Il Chianti", "fclass": "restaurant", "county_name": "Clark County" }, "geometry": { "type": "Point", "coordinates": [ -114.9927918, 36.0134175 ] } },
{ "type": "Feature", "properties": { "osm_id": "4668886727", "name": "Il Fornaio", "fclass": "restaurant", "county_name": "Clark County" }, "geometry": { "type": "Point", "coordinates": [ -115.174011, 36.1024474 ] } },
{ "type": "Feature", "properties": { "osm_id": "675449712", "name": "I Love Sushi", "fclass": "restaurant", "county_name": "Clark County" }, "geometry": { "type": "Point", "coordinates": [ -115.1028343, 35.991666 ] } },
{ "type": "Feature", "properties": { "osm_id": "11367634619", "name": "International Smoke", "fclass": "restaurant", "county_name": "Clark County" }, "geometry": { "type": "Point", "coordinates": [ -115.1684579, 36.1035161 ] } },
{ "type": "Feature", "properties": { "osm_id": "1777736848", "name": "Islander's Grill", "fclass": "restaurant", "county_name": "Clark County" }, "geometry": { "type": "Point", "coordinates": [ -114.9856162, 36.0335058 ] } },
{ "type": "Feature", "properties": { "osm_id": "7640946463", "name": "Island Flavors", "fclass": "restaurant", "county_name": "Clark County" }, "geometry": { "type": "Point", "coordinates": [ -115.3064746, 36.3145661 ] } },
{ "type": "Feature", "properties": { "osm_id": "8600536100", "name": "Island Style", "fclass": "restaurant", "county_name": "Clark County" }, "geometry": { "type": "Point", "coordinates": [ -115.193404, 36.144042 ] } },
{ "type": "Feature", "properties": { "osm_id": "12783366991", "name": "Jacky Chan Chinese Restaurant", "fclass": "restaurant", "county_name": "Clark County" }, "geometry": { "type": "Point", "coordinates": [ -115.2780764, 36.0216279 ] } },
{ "type": "Feature", "properties": { "osm_id": "13505337313", "name": "Jaleo", "fclass": "restaurant", "county_name": "Clark County" }, "geometry": { "type": "Point", "coordinates": [ -115.1739748, 36.109926 ] } },
{ "type": "Feature", "properties": { "osm_id": "4622082189", "name": "Japaneiro Asian Infusion", "fclass": "restaurant", "county_name": "Clark County" }, "geometry": { "type": "Point", "coordinates": [ -115.2517524, 36.055365 ] } },
{ "type": "Feature", "properties": { "osm_id": "7212501185", "name": "jardin", "fclass": "restaurant", "county_name": "Clark County" }, "geometry": { "type": "Point", "coordinates": [ -115.1644031, 36.1278491 ] } },
{ "type": "Feature", "properties": { "osm_id": "8241579280", "name": "Jasmine", "fclass": "restaurant", "county_name": "Clark County" }, "geometry": { "type": "Point", "coordinates": [ -115.1749201, 36.1126517 ] } },
{ "type": "Feature", "properties": { "osm_id": "13460860487", "name": "Javier's", "fclass": "restaurant", "county_name": "Clark County" }, "geometry": { "type": "Point", "coordinates": [ -115.1763264, 36.1076009 ] } },
{ "type": "Feature", "properties": { "osm_id": "13460860493", "name": "Jean Georges Steakhouse", "fclass": "restaurant", "county_name": "Clark County" }, "geometry": { "type": "Point", "coordinates": [ -115.1769882, 36.1069355 ] } },
{ "type": "Feature", "properties": { "osm_id": "10985367352", "name": "Jet's Pizza", "fclass": "restaurant", "county_name": "Clark County" }, "geometry": { "type": "Point", "coordinates": [ -115.0442161, 36.0632072 ] } },
{ "type": "Feature", "properties": { "osm_id": "11510205636", "name": "Jin Jin", "fclass": "restaurant", "county_name": "Clark County" }, "geometry": { "type": "Point", "coordinates": [ -115.2109536, 36.1255757 ] } },
{ "type": "Feature", "properties": { "osm_id": "11513107412", "name": "Jinju Gomtang", "fclass": "restaurant", "county_name": "Clark County" }, "geometry": { "type": "Point", "coordinates": [ -115.1952423, 36.1259006 ] } },
{ "type": "Feature", "properties": { "osm_id": "13338575408", "name": "Jin Mee Korean BBQ", "fclass": "restaurant", "county_name": "Clark County" }, "geometry": { "type": "Point", "coordinates": [ -115.1422012, 36.142657 ] } },
{ "type": "Feature", "properties": { "osm_id": "9753158516", "name": "JINYA Ramen Bar", "fclass": "restaurant", "county_name": "Clark County" }, "geometry": { "type": "Point", "coordinates": [ -115.2422383, 36.0570243 ] } },
{ "type": "Feature", "properties": { "osm_id": "5351555637", "name": "Johnny Rockets", "fclass": "restaurant", "county_name": "Clark County" }, "geometry": { "type": "Point", "coordinates": [ -115.176574, 36.0954563 ] } },
{ "type": "Feature", "properties": { "osm_id": "4669220519", "name": "Johnny Rockets", "fclass": "restaurant", "county_name": "Clark County" }, "geometry": { "type": "Point", "coordinates": [ -115.1749542, 36.0985448 ] } },
{ "type": "Feature", "properties": { "osm_id": "12508510933", "name": "Jong-Ro Chicken", "fclass": "restaurant", "county_name": "Clark County" }, "geometry": { "type": "Point", "coordinates": [ -115.2220396, 36.1252101 ] } },
{ "type": "Feature", "properties": { "osm_id": "3163900888", "name": "Jose Cuervo Tequileria", "fclass": "restaurant", "county_name": "Clark County" }, "geometry": { "type": "Point", "coordinates": [ -115.146538, 36.0806515 ] } },
{ "type": "Feature", "properties": { "osm_id": "12910882950", "name": "Jose Cuervo Tequileria", "fclass": "restaurant", "county_name": "Clark County" }, "geometry": { "type": "Point", "coordinates": [ -115.1468157, 36.0805415 ] } },
{ "type": "Feature", "properties": { "osm_id": "7075360686", "name": "Juan's Flaming Fajitas", "fclass": "restaurant", "county_name": "Clark County" }, "geometry": { "type": "Point", "coordinates": [ -115.3023526, 36.1006732 ] } },
{ "type": "Feature", "properties": { "osm_id": "12779853674", "name": "Kabob Grill", "fclass": "restaurant", "county_name": "Clark County" }, "geometry": { "type": "Point", "coordinates": [ -115.2707948, 36.019734 ] } },
{ "type": "Feature", "properties": { "osm_id": "2149942888", "name": "Kabob Korner", "fclass": "restaurant", "county_name": "Clark County" }, "geometry": { "type": "Point", "coordinates": [ -115.1403593, 36.1689436 ] } },
{ "type": "Feature", "properties": { "osm_id": "2746816466", "name": "kabuki Japanese restaurant", "fclass": "restaurant", "county_name": "Clark County" }, "geometry": { "type": "Point", "coordinates": [ -115.1779391, 36.0675472 ] } },
{ "type": "Feature", "properties": { "osm_id": "5769520553", "name": "Katanaya Ramen", "fclass": "restaurant", "county_name": "Clark County" }, "geometry": { "type": "Point", "coordinates": [ -115.1718398, 36.1144155 ] } },
{ "type": "Feature", "properties": { "osm_id": "11510294056", "name": "Kaya Sushi", "fclass": "restaurant", "county_name": "Clark County" }, "geometry": { "type": "Point", "coordinates": [ -115.1981353, 36.1260318 ] } },
{ "type": "Feature", "properties": { "osm_id": "12766255092", "name": "Kazuki Sushi", "fclass": "restaurant", "county_name": "Clark County" }, "geometry": { "type": "Point", "coordinates": [ -115.2068356, 35.9951595 ] } },
{ "type": "Feature", "properties": { "osm_id": "4668653108", "name": "Ketchup Premium Burger Bar", "fclass": "restaurant", "county_name": "Clark County" }, "geometry": { "type": "Point", "coordinates": [ -115.168866, 36.1102668 ] } },
{ "type": "Feature", "properties": { "osm_id": "4742179538", "name": "King's Fishhouse", "fclass": "restaurant", "county_name": "Clark County" }, "geometry": { "type": "Point", "coordinates": [ -115.0866284, 36.0209496 ] } },
{ "type": "Feature", "properties": { "osm_id": "12535677012", "name": "KJ Dim Sum", "fclass": "restaurant", "county_name": "Clark County" }, "geometry": { "type": "Point", "coordinates": [ -115.1891559, 36.1173715 ] } },
{ "type": "Feature", "properties": { "osm_id": "13050266560", "name": "Kobashi", "fclass": "restaurant", "county_name": "Clark County" }, "geometry": { "type": "Point", "coordinates": [ -115.1886208, 36.0398993 ] } },
{ "type": "Feature", "properties": { "osm_id": "12610598027", "name": "Kono's Northsore", "fclass": "restaurant", "county_name": "Clark County" }, "geometry": { "type": "Point", "coordinates": [ -115.2589966, 36.1808224 ] } },
{ "type": "Feature", "properties": { "osm_id": "11506974784", "name": "Korean Garden BBQ", "fclass": "restaurant", "county_name": "Clark County" }, "geometry": { "type": "Point", "coordinates": [ -115.1981958, 36.125998 ] } },
{ "type": "Feature", "properties": { "osm_id": "13104619375", "name": "Kosher at Vegas", "fclass": "restaurant", "county_name": "Clark County" }, "geometry": { "type": "Point", "coordinates": [ -115.1996703, 36.1575584 ] } },
{ "type": "Feature", "properties": { "osm_id": "12107517984", "name": "Krazy Eat", "fclass": "restaurant", "county_name": "Clark County" }, "geometry": { "type": "Point", "coordinates": [ -115.0468357, 36.06766 ] } },
{ "type": "Feature", "properties": { "osm_id": "6366513885", "name": "Krung Siam", "fclass": "restaurant", "county_name": "Clark County" }, "geometry": { "type": "Point", "coordinates": [ -115.189659, 36.1261442 ] } },
{ "type": "Feature", "properties": { "osm_id": "4669476607", "name": "Kumi", "fclass": "restaurant", "county_name": "Clark County" }, "geometry": { "type": "Point", "coordinates": [ -115.1751323, 36.0919378 ] } },
{ "type": "Feature", "properties": { "osm_id": "10742240868", "name": "Kungfu Noodle", "fclass": "restaurant", "county_name": "Clark County" }, "geometry": { "type": "Point", "coordinates": [ -115.0392013, 36.0650617 ] } },
{ "type": "Feature", "properties": { "osm_id": "5540679135", "name": "la cabaña", "fclass": "restaurant", "county_name": "Clark County" }, "geometry": { "type": "Point", "coordinates": [ -115.1796291, 36.1452466 ] } },
{ "type": "Feature", "properties": { "osm_id": "2735780577", "name": "La Costa del Sol", "fclass": "restaurant", "county_name": "Clark County" }, "geometry": { "type": "Point", "coordinates": [ -115.0644345, 36.1470458 ] } },
{ "type": "Feature", "properties": { "osm_id": "8241579276", "name": "Lago", "fclass": "restaurant", "county_name": "Clark County" }, "geometry": { "type": "Point", "coordinates": [ -115.1750032, 36.1133026 ] } },
{ "type": "Feature", "properties": { "osm_id": "4020584209", "name": "La La Noodle", "fclass": "restaurant", "county_name": "Clark County" }, "geometry": { "type": "Point", "coordinates": [ -115.1740723, 36.1041828 ] } },
{ "type": "Feature", "properties": { "osm_id": "11263218573", "name": "La Pizza e La Pasta", "fclass": "restaurant", "county_name": "Clark County" }, "geometry": { "type": "Point", "coordinates": [ -115.173831, 36.1042547 ] } },
{ "type": "Feature", "properties": { "osm_id": "3835157626", "name": "La Pupusa Loca", "fclass": "restaurant", "county_name": "Clark County" }, "geometry": { "type": "Point", "coordinates": [ -115.0616686, 36.1782056 ] } },
{ "type": "Feature", "properties": { "osm_id": "12910882940", "name": "Las Mkt", "fclass": "restaurant", "county_name": "Clark County" }, "geometry": { "type": "Point", "coordinates": [ -115.146741, 36.0804353 ] } },
{ "type": "Feature", "properties": { "osm_id": "12094255725", "name": "Las Pupusas", "fclass": "restaurant", "county_name": "Clark County" }, "geometry": { "type": "Point", "coordinates": [ -115.0519534, 36.06416 ] } },
{ "type": "Feature", "properties": { "osm_id": "12399088301", "name": "Las Pupusas Restaurant", "fclass": "restaurant", "county_name": "Clark County" }, "geometry": { "type": "Point", "coordinates": [ -115.171329, 36.0504627 ] } },
{ "type": "Feature", "properties": { "osm_id": "12842742799", "name": "La Strega", "fclass": "restaurant", "county_name": "Clark County" }, "geometry": { "type": "Point", "coordinates": [ -115.3252608, 36.1247007 ] } },
{ "type": "Feature", "properties": { "osm_id": "4668688399", "name": "La Subs & Salads", "fclass": "restaurant", "county_name": "Clark County" }, "geometry": { "type": "Point", "coordinates": [ -115.1719679, 36.1162678 ] } },
{ "type": "Feature", "properties": { "osm_id": "4668886739", "name": "L'Atelier De Joel Robuchon", "fclass": "restaurant", "county_name": "Clark County" }, "geometry": { "type": "Point", "coordinates": [ -115.169589, 36.1026401 ] } },
{ "type": "Feature", "properties": { "osm_id": "13338575406", "name": "La Vecindad Del Chavo", "fclass": "restaurant", "county_name": "Clark County" }, "geometry": { "type": "Point", "coordinates": [ -115.1421548, 36.1420373 ] } },
{ "type": "Feature", "properties": { "osm_id": "13320796453", "name": "La Vecindad Del Chavo Cantina", "fclass": "restaurant", "county_name": "Clark County" }, "geometry": { "type": "Point", "coordinates": [ -115.142163, 36.143784 ] } },
{ "type": "Feature", "properties": { "osm_id": "4668671255", "name": "Le Cirque", "fclass": "restaurant", "county_name": "Clark County" }, "geometry": { "type": "Point", "coordinates": [ -115.1749763, 36.1135689 ] } },
{ "type": "Feature", "properties": { "osm_id": "4668742167", "name": "Le Macaron", "fclass": "restaurant", "county_name": "Clark County" }, "geometry": { "type": "Point", "coordinates": [ -115.168923, 36.121718 ] } },
{ "type": "Feature", "properties": { "osm_id": "13460860485", "name": "Lemongrass", "fclass": "restaurant", "county_name": "Clark County" }, "geometry": { "type": "Point", "coordinates": [ -115.1776324, 36.1074237 ] } },
{ "type": "Feature", "properties": { "osm_id": "11418193325", "name": "Lemongrass & Lime", "fclass": "restaurant", "county_name": "Clark County" }, "geometry": { "type": "Point", "coordinates": [ -115.281235, 36.299433 ] } },
{ "type": "Feature", "properties": { "osm_id": "12595505023", "name": "Le Thai 2", "fclass": "restaurant", "county_name": "Clark County" }, "geometry": { "type": "Point", "coordinates": [ -115.1720124, 36.1593878 ] } },
{ "type": "Feature", "properties": { "osm_id": "2162916506", "name": "Lillie's Asian Cuisine", "fclass": "restaurant", "county_name": "Clark County" }, "geometry": { "type": "Point", "coordinates": [ -115.145702, 36.1693651 ] } },
{ "type": "Feature", "properties": { "osm_id": "10815091408", "name": "Lino's Pizza & Italian Cuisine", "fclass": "restaurant", "county_name": "Clark County" }, "geometry": { "type": "Point", "coordinates": [ -115.2526023, 36.2744864 ] } },
{ "type": "Feature", "properties": { "osm_id": "3356348914", "name": "Little City Grille", "fclass": "restaurant", "county_name": "Clark County" }, "geometry": { "type": "Point", "coordinates": [ -114.8416239, 35.9737226 ] } },
{ "type": "Feature", "properties": { "osm_id": "4668742165", "name": "Lobster Me", "fclass": "restaurant", "county_name": "Clark County" }, "geometry": { "type": "Point", "coordinates": [ -115.1687545, 36.1217851 ] } },
{ "type": "Feature", "properties": { "osm_id": "4668653106", "name": "Lobster Me", "fclass": "restaurant", "county_name": "Clark County" }, "geometry": { "type": "Point", "coordinates": [ -115.1708325, 36.1094857 ] } },
{ "type": "Feature", "properties": { "osm_id": "13072000127", "name": "Los Huicholes", "fclass": "restaurant", "county_name": "Clark County" }, "geometry": { "type": "Point", "coordinates": [ -115.1157843, 36.1718534 ] } },
{ "type": "Feature", "properties": { "osm_id": "4431609291", "name": "Los Lupes", "fclass": "restaurant", "county_name": "Clark County" }, "geometry": { "type": "Point", "coordinates": [ -114.0727427, 36.8038045 ] } },
{ "type": "Feature", "properties": { "osm_id": "13505337310", "name": "LPM Restaurant & Bar", "fclass": "restaurant", "county_name": "Clark County" }, "geometry": { "type": "Point", "coordinates": [ -115.1734513, 36.1096651 ] } },
{ "type": "Feature", "properties": { "osm_id": "5421566493", "name": "Lucille's Smokehouse BBQ", "fclass": "restaurant", "county_name": "Clark County" }, "geometry": { "type": "Point", "coordinates": [ -115.334207, 36.1570169 ] } },
{ "type": "Feature", "properties": { "osm_id": "5421566421", "name": "Lucky penny", "fclass": "restaurant", "county_name": "Clark County" }, "geometry": { "type": "Point", "coordinates": [ -115.3330045, 36.1559387 ] } },
{ "type": "Feature", "properties": { "osm_id": "3717312825", "name": "Luna Rossa", "fclass": "restaurant", "county_name": "Clark County" }, "geometry": { "type": "Point", "coordinates": [ -114.9291045, 36.1030545 ] } },
{ "type": "Feature", "properties": { "osm_id": "11418706847", "name": "Madang Garden", "fclass": "restaurant", "county_name": "Clark County" }, "geometry": { "type": "Point", "coordinates": [ -115.142553, 36.1420241 ] } },
{ "type": "Feature", "properties": { "osm_id": "8497799017", "name": "Made in Argentina", "fclass": "restaurant", "county_name": "Clark County" }, "geometry": { "type": "Point", "coordinates": [ -115.1895786, 36.0957893 ] } },
{ "type": "Feature", "properties": { "osm_id": "11506827406", "name": "Makai Pacific Island Grill", "fclass": "restaurant", "county_name": "Clark County" }, "geometry": { "type": "Point", "coordinates": [ -115.2981526, 36.0954401 ] } },
{ "type": "Feature", "properties": { "osm_id": "12766255058", "name": "Mama Bird Southern Kitchen", "fclass": "restaurant", "county_name": "Clark County" }, "geometry": { "type": "Point", "coordinates": [ -115.2056645, 35.9974272 ] } },
{ "type": "Feature", "properties": { "osm_id": "10710015966", "name": "Mama's Pizzeria", "fclass": "restaurant", "county_name": "Clark County" }, "geometry": { "type": "Point", "coordinates": [ -114.6227557, 35.1422798 ] } },
{ "type": "Feature", "properties": { "osm_id": "9208895041", "name": "Mangoneada Station", "fclass": "restaurant", "county_name": "Clark County" }, "geometry": { "type": "Point", "coordinates": [ -115.0635707, 36.1460392 ] } },
{ "type": "Feature", "properties": { "osm_id": "10742533832", "name": "Manhattan Pizza III", "fclass": "restaurant", "county_name": "Clark County" }, "geometry": { "type": "Point", "coordinates": [ -115.0540306, 36.0800145 ] } },
{ "type": "Feature", "properties": { "osm_id": "10743719810", "name": "Manila BBQ", "fclass": "restaurant", "county_name": "Clark County" }, "geometry": { "type": "Point", "coordinates": [ -115.0759717, 36.0720498 ] } },
{ "type": "Feature", "properties": { "osm_id": "1580118941", "name": "Marakesh", "fclass": "restaurant", "county_name": "Clark County" }, "geometry": { "type": "Point", "coordinates": [ -115.1546882, 36.1177772 ] } },
{ "type": "Feature", "properties": { "osm_id": "10284008356", "name": "Marigold Fine Indian Cuisine", "fclass": "restaurant", "county_name": "Clark County" }, "geometry": { "type": "Point", "coordinates": [ -115.2065316, 36.1159268 ] } },
{ "type": "Feature", "properties": { "osm_id": "13072000128", "name": "Mariscos Mariachi", "fclass": "restaurant", "county_name": "Clark County" }, "geometry": { "type": "Point", "coordinates": [ -115.1156395, 36.1721706 ] } },
{ "type": "Feature", "properties": { "osm_id": "13481981340", "name": "Marssa Restaurant", "fclass": "restaurant", "county_name": "Clark County" }, "geometry": { "type": "Point", "coordinates": [ -114.9226071, 36.1142302 ] } },
{ "type": "Feature", "properties": { "osm_id": "12594212076", "name": "Más Por Favor", "fclass": "restaurant", "county_name": "Clark County" }, "geometry": { "type": "Point", "coordinates": [ -115.1913397, 36.1261402 ] } },
{ "type": "Feature", "properties": { "osm_id": "11179651973", "name": "Mastrioni's", "fclass": "restaurant", "county_name": "Clark County" }, "geometry": { "type": "Point", "coordinates": [ -115.3146493, 36.1290061 ] } },
{ "type": "Feature", "properties": { "osm_id": "461832418", "name": "Matryoshka", "fclass": "restaurant", "county_name": "Clark County" }, "geometry": { "type": "Point", "coordinates": [ -115.1710486, 36.049215 ] } },
{ "type": "Feature", "properties": { "osm_id": "6693655581", "name": "Maxie's", "fclass": "restaurant", "county_name": "Clark County" }, "geometry": { "type": "Point", "coordinates": [ -115.1692253, 36.1175386 ] } },
{ "type": "Feature", "properties": { "osm_id": "9719036593", "name": "M Cafe", "fclass": "restaurant", "county_name": "Clark County" }, "geometry": { "type": "Point", "coordinates": [ -115.1700862, 35.9648004 ] } },
{ "type": "Feature", "properties": { "osm_id": "13478325909", "name": "Meat Salon Korean BBQ", "fclass": "restaurant", "county_name": "Clark County" }, "geometry": { "type": "Point", "coordinates": [ -115.1172725, 36.0150118 ] } },
{ "type": "Feature", "properties": { "osm_id": "6861912185", "name": "Mega Tom's Burger", "fclass": "restaurant", "county_name": "Clark County" }, "geometry": { "type": "Point", "coordinates": [ -115.1785525, 36.1971776 ] } },
{ "type": "Feature", "properties": { "osm_id": "4742179569", "name": "Me Gusta Tacos", "fclass": "restaurant", "county_name": "Clark County" }, "geometry": { "type": "Point", "coordinates": [ -115.0864242, 36.0212519 ] } },
{ "type": "Feature", "properties": { "osm_id": "10743775524", "name": "Meráki Greek Grill", "fclass": "restaurant", "county_name": "Clark County" }, "geometry": { "type": "Point", "coordinates": [ -115.047189, 36.0447786 ] } },
{ "type": "Feature", "properties": { "osm_id": "12779853623", "name": "Meráki Greek Grill", "fclass": "restaurant", "county_name": "Clark County" }, "geometry": { "type": "Point", "coordinates": [ -115.2660889, 36.0185848 ] } },
{ "type": "Feature", "properties": { "osm_id": "13119677281", "name": "Mercato Della Pescheria Las Vegas", "fclass": "restaurant", "county_name": "Clark County" }, "geometry": { "type": "Point", "coordinates": [ -115.1683394, 36.1224024 ] } },
{ "type": "Feature", "properties": { "osm_id": "4668886734", "name": "MGM Grand Buffet", "fclass": "restaurant", "county_name": "Clark County" }, "geometry": { "type": "Point", "coordinates": [ -115.170822, 36.1021296 ] } },
{ "type": "Feature", "properties": { "osm_id": "11510294066", "name": "miàn", "fclass": "restaurant", "county_name": "Clark County" }, "geometry": { "type": "Point", "coordinates": [ -115.1976194, 36.125988 ] } },
{ "type": "Feature", "properties": { "osm_id": "13461048375", "name": "Michael Mina", "fclass": "restaurant", "county_name": "Clark County" }, "geometry": { "type": "Point", "coordinates": [ -115.1768663, 36.1120345 ] } },
{ "type": "Feature", "properties": { "osm_id": "4670165942", "name": "Michael's Gourmet Room", "fclass": "restaurant", "county_name": "Clark County" }, "geometry": { "type": "Point", "coordinates": [ -115.1756678, 36.0117574 ] } },
{ "type": "Feature", "properties": { "osm_id": "12090890667", "name": "Michi Ramen", "fclass": "restaurant", "county_name": "Clark County" }, "geometry": { "type": "Point", "coordinates": [ -115.0346965, 36.064213 ] } },
{ "type": "Feature", "properties": { "osm_id": "3375104373", "name": "Mikos Izakaya", "fclass": "restaurant", "county_name": "Clark County" }, "geometry": { "type": "Point", "coordinates": [ -115.1527627, 36.0429503 ] } },
{ "type": "Feature", "properties": { "osm_id": "9577021538", "name": "Minato", "fclass": "restaurant", "county_name": "Clark County" }, "geometry": { "type": "Point", "coordinates": [ -114.5750429, 35.1553011 ] } },
{ "type": "Feature", "properties": { "osm_id": "10740248174", "name": "Mister Kim's Korean BBQ", "fclass": "restaurant", "county_name": "Clark County" },